{
  "Locations": [
    {
      "Location_Name_En": "Aadouiye",
      "Location_Name_Arabic ": "عدوي",
      "Latitude": "34.58148",
      "Longitude": "36.17743",
    },
    {
      "Location_Name_En": "Aaidamoun",
      "Location_Name_Arabic ": "عيدمون",
      "Latitude": "34.59720",
      "Longitude": "36.28642",
      "Elevation": "541",
    },
    {
      "Location_Name_En": "Aaiyat",
      "Location_Name_Arabic ": "عيات",
      "Latitude": "34.53534",
      "Longitude": "36.19682",
    },
    {
      "Location_Name_En": "Aakkar El Attiqa",
      "Location_Name_Arabic ": "عكار العتيقة",
      "Latitude": "34.52496",
      "Longitude": "36.24071",
    },
    {
      "Location_Name_En": "Aamara",
      "Location_Name_Arabic ": "عماره",
      "Latitude": "34.53456",
      "Longitude": "36.01058",
    },
    {
      "Location_Name_En": "Aaouinat",
      "Location_Name_Arabic ": "العوينات",
      "Latitude": "34.62539",
      "Longitude": "36.30098",
    },
    {
      "Location_Name_En": "Aarab Jourmnaya",
      "Location_Name_Arabic ": "جرمنايا",
      "Latitude": "34.61227",
      "Longitude": "36.35987",
    },
    {
      "Location_Name_En": "Aarida",
      "Location_Name_Arabic ": "عريضا",
      "Latitude": "34.66758",
      "Longitude": "36.30333",
    },
    {
      "Location_Name_En": "Aarmeh",
      "Location_Name_Arabic ": "عرمه",
      "Latitude": "34.62980",
      "Longitude": "36.16067",
    },
    {
      "Location_Name_En": "Aarqa",
      "Location_Name_Arabic ": "عرقا",
      "Latitude": "34.53269",
      "Longitude": "36.03593",
    },
    {
      "Location_Name_En": "Aayoun",
      "Location_Name_Arabic ": "عيون ",
      "Latitude": "34.53937",
      "Longitude": "36.17444",
    },
    {
      "Location_Name_En": "Aayoun El Ghezlane",
      "Location_Name_Arabic ": "عيون الغزلان",
      "Latitude": "34.47299",
      "Longitude": "36.02021",
    },
    {
      "Location_Name_En": "Abde",
      "Location_Name_Arabic ": "العبده",
      "Latitude": "34.51678",
      "Longitude": "35.96702",
    },
    {
      "Location_Name_En": "Ain er Rsas",
      "Location_Name_Arabic ": "عين الراس",
      "Latitude": "34.59426",
      "Longitude": "36.24114", 
    },
    {
      "Location_Name_En": "Ain ez Zeit",
      "Location_Name_Arabic ": "عين الزيت",
      "Latitude": "34.59065",
      "Longitude": "36.19905",
    },
    {
      "Location_Name_En": "Ain Faouar",
      "Location_Name_Arabic ": "عين الفوار",
      "Latitude": "34.50263",
      "Longitude": "35.98335",
    },
    {
      "Location_Name_En": "Ain Tinta",
      "Location_Name_Arabic ": "عين تنتا",
      "Latitude": "34.58433",
      "Longitude": "36.18293",
    },
    {
      "Location_Name_En": "Ain Yaaqoub",
      "Location_Name_Arabic ": "عين يعقوب",
      "Latitude": "34.51941",
      "Longitude": "36.19772",
    },
    {
      "Location_Name_En": "Akroum",
      "Location_Name_Arabic ": "اكروم",
      "Latitude": "34.54330",
      "Longitude": "36.36186",
    },
    {
      "Location_Name_En": "Al-Massoudieh",
      "Location_Name_Arabic ": "المسعودية",
      "Latitude": "34.60565",
      "Longitude": "36.04791",
    },
    {
      "Location_Name_En": "Amaret el Baykat",
      "Location_Name_Arabic ": "عمار البيكات",
      "Latitude": "34.60849",
      "Longitude": "36.16267",
    },
    {
      "Location_Name_En": "Amayer",
      "Location_Name_Arabic ": "العماير",
      "Latitude": "34.62872",
      "Longitude": "36.38637",
    },
    {
      "Location_Name_En": "Andqat",
      "Location_Name_Arabic ": "عندقت",
      "Latitude": "34.58704",
      "Longitude": "36.30436",
    },
    {
      "Location_Name_En": "Ard es Soud",
      "Location_Name_Arabic ": "ارض السود",
      "Latitude": "34.63261",
      "Longitude": "36.02108",
    },
    {
      "Location_Name_En": "Awade",
      "Location_Name_Arabic ": "العواده",
      "Latitude": "34.62606",
      "Longitude": "36.37592",
    },
    {
      "Location_Name_En": "Baaliye",
      "Location_Name_Arabic ": "بعليا",
      "Latitude": "34.53778",
      "Longitude": "36.20806",
    },
    {
      "Location_Name_En": "Baddouaa",
      "Location_Name_Arabic ": "بدويا",
      "Latitude": "34.49043",
      "Longitude": "35.99000",
    },
    {
      "Location_Name_En": "Bajaa",
      "Location_Name_Arabic ": "بجعة",
      "Latitude": "34.48984",
      "Longitude": "36.07453",
    },
    {
      "Location_Name_En": "Balde",
      "Location_Name_Arabic ": "بلدي",
      "Latitude": "34.56076",
      "Longitude": "36.14491",
    },
    {
      "Location_Name_En": "Bani Sakher",
      "Location_Name_Arabic ": "بني صخر",
      "Latitude": "34.57030",
      "Longitude": "36.36030",
    },
    {
      "Location_Name_En": "Barcha",
      "Location_Name_Arabic ": "برشا",
      "Latitude": "34.62762",
      "Longitude": "36.11926",
    },
    {
      "Location_Name_En": "Bebnine",
      "Location_Name_Arabic ": "ببنين",
      "Latitude": "34.49905",
      "Longitude": "35.99289",
    },
    {
      "Location_Name_En": "Beino",
      "Location_Name_Arabic ": "بينو",
      "Latitude": "34.53720",
      "Longitude": "36.17789",
    },
    {
      "Location_Name_En": "Beit Ali Adraa",
      "Location_Name_Arabic ": "بيت علي عدرة",
      "Latitude": "34.55377",
      "Longitude": "36.32520",
    },
    {
      "Location_Name_En": "Beit Ayoub",
      "Location_Name_Arabic ": "بيت ايوب",
      "Latitude": "34.47360",
      "Longitude": "36.15936",
    },
    {
      "Location_Name_En": "Beit Daoud",
      "Location_Name_Arabic ": "بيت داوود",
      "Latitude": "34.51828",
      "Longitude": "36.17040",
    },
    {
      "Location_Name_En": "Beit el Haj",
      "Location_Name_Arabic ": "بيت الحاج",
      "Latitude": "34.55954",
      "Longitude": "36.10495",
    },
    {
      "Location_Name_En": "Beit el Haouch",
      "Location_Name_Arabic ": "بيت الحوش",
      "Latitude": "34.47623",
      "Longitude": "35.99975",
    },
    {
      "Location_Name_En": "Beit Ghattas",
      "Location_Name_Arabic ": "بيت غطاس",
      "Latitude": "34.52460",
      "Longitude": "36.05989",
    },
    {
      "Location_Name_En": "Beit Khlaiyel",
      "Location_Name_Arabic ": "بيت خلايل",
      "Latitude": "34.53379",
      "Longitude": "36.22308",
    },
    {
      "Location_Name_En": "Beit Mellat",
      "Location_Name_Arabic ": "بيت ملات",
      "Latitude": "34.52956",
      "Longitude": "36.16178",
    },
    {
      "Location_Name_En": "Beit Younes",
      "Location_Name_Arabic ": "بيت يونس",
      "Latitude": "34.47557",
      "Longitude": "36.14823",
    },
    {
      "Location_Name_En": "Bellanet el Hissa",
      "Location_Name_Arabic ": "بلانة الحيصة",
      "Latitude": "34.58130",
      "Longitude": "36.04836",
    },
    {
      "Location_Name_En": "Berbara",
      "Location_Name_Arabic ": "برباره",
      "Latitude": "34.57328",
      "Longitude": "36.18690",
    },
    {
      "Location_Name_En": "Berqayel",
      "Location_Name_Arabic ": "برقايل",
      "Latitude": "34.47742",
      "Longitude": "36.03266",
    },
    {
      "Location_Name_En": "Bezbina",
      "Location_Name_Arabic ": "بزبينا",
      "Latitude": "34.51489",
      "Longitude": "36.19606",
    },
    {
      "Location_Name_En": "Bire Akkar",
      "Location_Name_Arabic ": "البيره عكار",
      "Latitude": "34.58756",
      "Longitude": "36.23644",
      ,
      "Old name used in V3.3": "Bire"
    },
    {
      "Location_Name_En": "Borj el Arab",
      "Location_Name_Arabic ": "برج العرب",
      "Latitude": "34.52444",
      "Longitude": "36.00921",
    },
    {
      "Location_Name_En": "Boustane El Herch",
      "Location_Name_Arabic ": "بستان الحرش",
      "Latitude": "34.61678",
      "Longitude": "36.26135",
    },
    {
      "Location_Name_En": "Bqayaa",
      "Location_Name_Arabic ": "البقيعه",
      "Latitude": "34.67556",
      "Longitude": "36.33000",
    },
    {
      "Location_Name_En": "Bqerzala",
      "Location_Name_Arabic ": "بقرزلا",
      "Latitude": "34.51288",
      "Longitude": "36.05417",
    },
    {
      "Location_Name_En": "Bzaita",
      "Location_Name_Arabic ": "بزيتا",
      "Latitude": "34.44744",
      "Longitude": "36.07933",
    },
    {
      "Location_Name_En": "Bzal",
      "Location_Name_Arabic ": "بزال",
      "Latitude": "34.47256",
      "Longitude": "36.04340",
    },
    {
      "Location_Name_En": "Chadra",
      "Location_Name_Arabic ": "شدره",
      "Latitude": "34.62003",
      "Longitude": "36.32235",
    },
    {
      "Location_Name_En": "Chane",
      "Location_Name_Arabic ": "شان",
      "Latitude": "34.48208",
      "Longitude": "36.11369",
    },
    {
      "Location_Name_En": "Chaqdouf",
      "Location_Name_Arabic ": "الشقدوف",
      "Latitude": "34.52889",
      "Longitude": "36.18972",
    },
    {
      "Location_Name_En": "Charbila",
      "Location_Name_Arabic ": "شربيلا",
      "Latitude": "34.58358",
      "Longitude": "36.14497",
    },
    {
      "Location_Name_En": "Chattaha",
      "Location_Name_Arabic ": "شطاحة",
      "Latitude": "34.53313",
      "Longitude": "36.17053",
    },
    {
      "Location_Name_En": "Cheik Mohammad",
      "Location_Name_Arabic ": "الشيخ محمد",
      "Latitude": "34.54979",
      "Longitude": "36.08303",
    },
    {
      "Location_Name_En": "Cheikh Aayash",
      "Location_Name_Arabic ": "الشيخ عياش",
      "Latitude": "34.63342",
      "Longitude": "36.10141",
    },
    {
      "Location_Name_En": "Cheikh Hmairine",
      "Location_Name_Arabic ": "شيخ حمارين",
      "Latitude": "34.62260",
      "Longitude": "36.10290",
    },
    {
      "Location_Name_En": "Cheikh Taba ",
      "Location_Name_Arabic ": "الشيخ طابا",
      "Latitude": "34.53310",
      "Longitude": "36.07760",
    },
    {
      "Location_Name_En": "Cheikh Taba es Sahl",
      "Location_Name_Arabic ": "الشيخ طابا السهل",
      "Latitude": "34.54968",
      "Longitude": "36.06118",
,
      "Latitude_v3.3": "34.533164",
      "Longitude_v3.3": "36.0765"
    },
    {
      "Location_Name_En": "Cheikh Zennad Talbibe",
      "Location_Name_Arabic ": "الشيخ زناد",
      "Latitude": "34.60695",
      "Longitude": "35.98598",
    },
    {
      "Location_Name_En": "Cheikhlar",
      "Location_Name_Arabic ": "شيخلار",
      "Latitude": "34.62091",
      "Longitude": "36.27209",
    },
    {
      "Location_Name_En": "Chir Hmairine",
      "Location_Name_Arabic ": "شير حمارين",
      "Latitude": "34.61918",
      "Longitude": "36.11629",
    },
    {
      "Location_Name_En": "Dabadeb",
      "Location_Name_Arabic ": "داباديب",
      "Latitude": "34.61324",
      "Longitude": "36.38437",
    },
    {
      "Location_Name_En": "Daghle",
      "Location_Name_Arabic ": "الدغلة",
      "Latitude": "34.58123",
      "Longitude": "36.20909",
    },
    {
      "Location_Name_En": "Dahr Aayas",
      "Location_Name_Arabic ": "ضهر عياس",
      "Latitude": "34.51803",
      "Longitude": "36.05286",
    },
    {
      "Location_Name_En": "Dahr El Ballane",
      "Location_Name_Arabic ": "ضهر البلانه",
      "Latitude": "34.56795",
      "Longitude": "36.26897",
    },
    {
      "Location_Name_En": "Dahr el Houssain",
      "Location_Name_Arabic ": "ضهر الحسين",
      "Latitude": "34.45277",
      "Longitude": "36.00433",
    },
    {
      "Location_Name_En": "Dahr Laissineh",
      "Location_Name_Arabic ": "ضهر ليسينه",
      "Latitude": "34.53920",
      "Longitude": "36.13550",
    },
    {
      "Location_Name_En": "Danke et El Amriyeh",
      "Location_Name_Arabic ": "دنكة و العامرية",
      "Latitude": "34.58670",
      "Longitude": "36.22530",
    },
    {
      "Location_Name_En": "Daousse Baghdadi",
      "Location_Name_Arabic ": "دوسة بغدادي",
      "Latitude": "34.60000",
      "Longitude": "36.19111",
    },
    {
      "Location_Name_En": "Darine",
      "Location_Name_Arabic ": "دارين",
      "Latitude": "34.60457",
      "Longitude": "36.10421",
    },
    {
      "Location_Name_En": "Dayret Nahr el Kabir",
      "Location_Name_Arabic ": "دائرة النهر الكبير",
      "Latitude": "34.68060",
      "Longitude": "36.33360",
    },
    {
      "Location_Name_En": "Deir Dalloum",
      "Location_Name_Arabic ": "دير دلوم",
      "Latitude": "34.51967",
      "Longitude": "36.03300",
    },
    {
      "Location_Name_En": "Deir Janine",
      "Location_Name_Arabic ": "دير جنين",
      "Latitude": "34.56483",
      "Longitude": "36.17579",
    },
    {
      "Location_Name_En": "Deir Mar Jeryos",
      "Location_Name_Arabic ": "دير مار جريس",
      "Latitude": "34.56351",
      "Longitude": "36.18811",
    },
    {
      "Location_Name_En": "Denke",
      "Location_Name_Arabic ": "دنكي",
      "Latitude": "34.60336",
      "Longitude": "36.22831",
    },
    {
      "Location_Name_En": "Dibbabiye",
      "Location_Name_Arabic ": "دبابية",
      "Latitude": "34.62410",
      "Longitude": "36.20352",
    },
    {
      "Location_Name_En": "Dinbou Ain al zahab",
      "Location_Name_Arabic ": "دنبو عين الذهب",
      "Latitude": "34.47886",
      "Longitude": "36.08711",
    },
    {
      "Location_Name_En": "Doueir Aadouiye",
      "Location_Name_Arabic ": "دوير عدويه",
      "Latitude": "34.58140",
      "Longitude": "36.17860",
    },
    {
      "Location_Name_En": "Ech Cheikh Maarouf",
      "Location_Name_Arabic ": "الشيخ معروف",
      "Latitude": "34.46706",
      "Longitude": "36.03499",
    },
    {
      "Location_Name_En": "Ed Daoura",
      "Location_Name_Arabic ": "الدوره",
      "Latitude": "34.54493",
      "Longitude": "36.21316",
    },
    {
      "Location_Name_En": "Ed Daousse",
      "Location_Name_Arabic ": "الدوسة",
      "Latitude": "34.59946",
      "Longitude": "36.18998",
    },
    {
      "Location_Name_En": "Ed Debbabiye el Charqiye",
      "Location_Name_Arabic ": "الدبابية الشرقية",
      "Latitude": "34.62263",
      "Longitude": "36.21510",
    },
    {
      "Location_Name_En": "Ed Debbabiye el Gharbiye",
      "Location_Name_Arabic ": "الدبابية الغربية",
      "Latitude": "34.62612",
      "Longitude": "36.20515",
    },
    {
      "Location_Name_En": "El Aabboudiye",
      "Location_Name_Arabic ": "العبودية",
      "Latitude": "34.63349",
      "Longitude": "36.11582",
    },
    {
      "Location_Name_En": "El Aamriye",
      "Location_Name_Arabic ": "العمارية",
      "Latitude": "34.60053",
      "Longitude": "36.21802",
    },
    {
      "Location_Name_En": "El Aaouaichat",
      "Location_Name_Arabic ": "العويشات",
      "Latitude": "34.62301",
      "Longitude": "36.38019",
    },
    {
      "Location_Name_En": "El Aarida",
      "Location_Name_Arabic ": "العريضة",
      "Latitude": "34.63300",
      "Longitude": "35.97630",
    },
    {
      "Location_Name_En": "El Aayoun",
      "Location_Name_Arabic ": "العيون",
      "Latitude": "34.52836",
      "Longitude": "36.17204",
    },
    {
      "Location_Name_En": "El Barde",
      "Location_Name_Arabic ": "بردي",
      "Latitude": "34.59795",
      "Longitude": "36.25720",
    },
    {
      "Location_Name_En": "El Borj Akkar",
      "Location_Name_Arabic ": "البرج عكار",
      "Latitude": "34.53179",
      "Longitude": "36.18621",
      ,
      "Old name used in V3.3": "El Borj"
    },
    {
      "Location_Name_En": "El Fraidis",
      "Location_Name_Arabic ": "فريديس",
      "Latitude": "34.61486",
      "Longitude": "36.22816",
    },
    {
      "Location_Name_En": "El Ghawaya",
      "Location_Name_Arabic ": "القبيات غوايا",
      "Latitude": "34.56482",
      "Longitude": "36.27345",
    },
    {
      "Location_Name_En": "El Haissa",
      "Location_Name_Arabic ": "الحيصة",
      "Latitude": "34.59248",
      "Longitude": "36.05255",
    },
    {
      "Location_Name_En": "El Hichi",
      "Location_Name_Arabic ": "الهيشه",
      "Latitude": "34.63687",
      "Longitude": "36.36758",
    },
    {
      "Location_Name_En": "El Houaich",
      "Location_Name_Arabic ": "الحويش",
      "Latitude": "34.49934",
      "Longitude": "36.11705",
    },
    {
      "Location_Name_En": "El Kharnoubeh",
      "Location_Name_Arabic ": "الخرنوبه",
      "Latitude": "34.62714",
      "Longitude": "36.12941",
    },
    {
      "Location_Name_En": "El Khirbe",
      "Location_Name_Arabic ": "الخربة ",
      "Latitude": "34.50090",
      "Longitude": "36.29590",
    },
    {
      "Location_Name_En": "El Khirbe Msalla",
      "Location_Name_Arabic ": "الخربة مصلا",
      "Latitude": "34.59387",
      "Longitude": "36.18234",
,
      "Old name used in V3.3": "El Khirbe"
    },
    {
      "Location_Name_En": "EL Khirbe Qleiaat",
      "Location_Name_Arabic ": "الخربة قليعات",
      "Latitude": "34.58798",
      "Longitude": "36.01721",
      ,
      "Old name used in V3.3": "EL Khirbe"
    },
    {
      "Location_Name_En": "El Khoder",
      "Location_Name_Arabic ": "الخضر اكروم",
      "Latitude": "34.60011",
      "Longitude": "36.39624",
    },
    {
      "Location_Name_En": "El Kneisse",
      "Location_Name_Arabic ": "الكنيسة",
      "Latitude": "34.61850",
      "Longitude": "36.02043",
    },
    {
      "Location_Name_En": "El Kouraniye",
      "Location_Name_Arabic ": "الكورانية",
      "Latitude": "34.55013",
      "Longitude": "35.99642",
    },
    {
      "Location_Name_En": "El Krahne",
      "Location_Name_Arabic ": "الكراهنة",
      "Latitude": "34.55974",
      "Longitude": "36.12231",
    },
    {
      "Location_Name_En": "El Kroum",
      "Location_Name_Arabic ": "الكروم",
      "Latitude": "34.48512",
      "Longitude": "36.03368",
    },
    {
      "Location_Name_En": "El Majdal",
      "Location_Name_Arabic ": "المجدل العماير",
      "Latitude": "34.62974",
      "Longitude": "36.39503",
    },
    {
      "Location_Name_En": "El Majdel",
      "Location_Name_Arabic ": "المجدل عكار",
      "Latitude": "34.57012",
      "Longitude": "36.21532",
    },
    {
      "Location_Name_En": "El Mbar kiye",
      "Location_Name_Arabic ": "المباركية",
      "Latitude": "34.49578",
      "Longitude": "36.06793",
    },
    {
      "Location_Name_En": "El Melkiye",
      "Location_Name_Arabic ": "الملكي",
      "Latitude": "34.53590",
      "Longitude": "36.14449",
    },
    {
      "Location_Name_En": "El Mqaiteaa",
      "Location_Name_Arabic ": "المقيطع",
      "Latitude": "34.54444",
      "Longitude": "36.00806",
    },
    {
      "Location_Name_En": "El Qantara",
      "Location_Name_Arabic ": "القنطرة",
      "Latitude": "34.51898",
      "Longitude": "36.07090",
    },
    {
      "Location_Name_En": "El Qatlabe",
      "Location_Name_Arabic ": "القبيات القطلبه",
      "Latitude": "34.54395",
      "Longitude": "36.28300",
    },
    {
      "Location_Name_En": "El Qlaiaat",
      "Location_Name_Arabic ": "القليعات",
      "Latitude": "34.58222",
      "Longitude": "36.01485",
    },
    {
      "Location_Name_En": "El Qorne",
      "Location_Name_Arabic ": "القرنة",
      "Latitude": "34.47785",
      "Longitude": "36.16869",
    },
    {
      "Location_Name_En": "El Qsair",
      "Location_Name_Arabic ": "القصير",
      "Latitude": "34.60711",
      "Longitude": "36.23736",
    },
    {
      "Location_Name_En": "El Rama",
      "Location_Name_Arabic ": "الرامه",
      "Latitude": "34.62014",
      "Longitude": "36.37704",
    },
    {
      "Location_Name_En": "En Nabi Khaled",
      "Location_Name_Arabic ": "النبي خالد",
      "Latitude": "34.46899",
      "Longitude": "36.22003",
    },
    {
      "Location_Name_En": "Er Ransiye",
      "Location_Name_Arabic ": "الرانسية",
      "Latitude": "34.53147",
      "Longitude": "36.02719",
    },
    {
      "Location_Name_En": "Er Rouaime",
      "Location_Name_Arabic ": "الرويمة",
      "Latitude": "34.51956",
      "Longitude": "36.31551",
    },
    {
      "Location_Name_En": "Es Sayeh",
      "Location_Name_Arabic ": "السايح",
      "Latitude": "34.51527",
      "Longitude": "36.24590",
    },
    {
      "Location_Name_En": "Es Souaisse",
      "Location_Name_Arabic ": "السويسة",
      "Latitude": "34.55643",
      "Longitude": "36.12179",
    },
    {
      "Location_Name_En": "Ez Zouq",
      "Location_Name_Arabic ": "الذوق",
      "Latitude": "34.54701",
      "Longitude": "36.08084",
    },
    {
      "Location_Name_En": "Fard",
      "Location_Name_Arabic ": "الفرض",
      "Latitude": "34.61722",
      "Longitude": "36.16389",
    },
    {
      "Location_Name_En": "Fnaideq",
      "Location_Name_Arabic ": "فنيدق",
      "Latitude": "34.47677",
      "Longitude": "36.18161",
    },
    {
      "Location_Name_En": "Fsiqine et Ain Echma",
      "Location_Name_Arabic ": "فسقين و عين اشما",
      "Latitude": "34.57773",
      "Longitude": "36.20277",
    },
    {
      "Location_Name_En": "Ghzaile",
      "Location_Name_Arabic ": "الغزيله",
      "Latitude": "34.59500",
      "Longitude": "36.11199",
    },
    {
      "Location_Name_En": "Habchit",
      "Location_Name_Arabic ": "حبشيت",
      "Latitude": "34.46770",
      "Longitude": "36.08888",
    },
    {
      "Location_Name_En": "Haider",
      "Location_Name_Arabic ": "حيدر",
      "Latitude": "34.53067",
      "Longitude": "36.29624",
    },
    {
      "Location_Name_En": "Haitla",
      "Location_Name_Arabic ": "هيتلا",
      "Latitude": "34.60244",
      "Longitude": "36.13268",
    },
    {
      "Location_Name_En": "Haizouq",
      "Location_Name_Arabic ": "حيزوق",
      "Latitude": "34.54841",
      "Longitude": "36.12665",
    },
    {
      "Location_Name_En": "Halba",
      "Location_Name_Arabic ": "حلبا",
      "Latitude": "34.54333",
      "Longitude": "36.07770",
    },
    {
      "Location_Name_En": "Haouch",
      "Location_Name_Arabic ": "حوش",
      "Latitude": "34.60874",
      "Longitude": "36.14843",
    },
    {
      "Location_Name_En": "Haouchab",
      "Location_Name_Arabic ": "هوشب",
      "Latitude": "34.58697",
      "Longitude": "36.10293",
,
      "Old name used in V3.3": "Haouchah"
    },
    {
      "Location_Name_En": "Haret Beit Kessab",
      "Location_Name_Arabic ": "حارة بيت كساب",
      "Latitude": "34.45132",
      "Longitude": "36.14121",
    },
    {
      "Location_Name_En": "Haret ej Jdide",
      "Location_Name_Arabic ": "حارة الجديدة",
      "Latitude": "34.57671",
      "Longitude": "36.01798",
    },
    {
      "Location_Name_En": "Haret ej Jdide Mqaiteaa",
      "Location_Name_Arabic ": "حارة الجديدة المقيطع",
      "Latitude": "34.55675",
      "Longitude": "35.99471",
    },
    {
      "Location_Name_En": "Hedd",
      "Location_Name_Arabic ": "الهد",
      "Latitude": "34.55864",
      "Longitude": "36.15756",
    },
    {
      "Location_Name_En": "Hikr Janine",
      "Location_Name_Arabic ": "حكر جنين",
      "Latitude": "34.63607",
      "Longitude": "36.12912",
    },
    {
      "Location_Name_En": "Hissa",
      "Location_Name_Arabic ": "الحيصا",
      "Latitude": "34.58729",
      "Longitude": "36.05815",
    },
    {
      "Location_Name_En": "Hmaireh Aakkar",
      "Location_Name_Arabic ": "الحميرة",
      "Latitude": "34.49138",
      "Longitude": "36.04783",
    },
    {
      "Location_Name_En": "Hmais",
      "Location_Name_Arabic ": "حميص",
      "Latitude": "34.57465",
      "Longitude": "36.12602",
    },
    {
      "Location_Name_En": "Hnaider",
      "Location_Name_Arabic ": "حنيدر",
      "Latitude": "34.61540",
      "Longitude": "36.42736",
    },
    {
      "Location_Name_En": "Hokr ech Cheikh Taba",
      "Location_Name_Arabic ": "حكر الشيخ طابا",
      "Latitude": "34.53968",
      "Longitude": "36.07512",
    },
    {
      "Location_Name_En": "Hokr ed Dahri",
      "Location_Name_Arabic ": "حكر الضاهري",
      "Latitude": "34.63075",
      "Longitude": "36.02255",
    },
    {
      "Location_Name_En": "Hokr el Kousse",
      "Location_Name_Arabic ": "حكر الكوسا",
      "Latitude": "34.59150",
      "Longitude": "36.02959",
    },
    {
      "Location_Name_En": "Hokr El Mahmoudiye",
      "Location_Name_Arabic ": "حكر المحمودية",
      "Latitude": "34.60265",
      "Longitude": "36.04493",
    },
    {
      "Location_Name_En": "Hokr Etti",
      "Location_Name_Arabic ": "حكر قتة",
      "Latitude": "34.57435",
      "Longitude": "36.09820",
    },
    {
      "Location_Name_En": "Hokr Jouret Srar",
      "Location_Name_Arabic ": "حكر جورة سرار",
      "Latitude": "34.62750",
      "Longitude": "36.10564",
    },
    {
      "Location_Name_En": "Hrar",
      "Location_Name_Arabic ": "حرار",
      "Latitude": "34.45746",
      "Longitude": "36.12158",
    },
    {
      "Location_Name_En": "Idbil",
      "Location_Name_Arabic ": "عدبل",
      "Latitude": "34.53565",
      "Longitude": "36.09489",
    },
    {
      "Location_Name_En": "Ilat",
      "Location_Name_Arabic ": "ايلات",
      "Latitude": "34.51939",
      "Longitude": "36.10869",
    },
    {
      "Location_Name_En": "Janine",
      "Location_Name_Arabic ": "جنين",
      "Latitude": "34.62860",
      "Longitude": "36.14679",
    },
    {
      "Location_Name_En": "Jdaidet Ej Joumeh",
      "Location_Name_Arabic ": "جديدة الجومه",
      "Latitude": "34.53385",
      "Longitude": "36.06556",
    },
    {
      "Location_Name_En": "Jdeide",
      "Location_Name_Arabic ": "جديدة",
      "Latitude": "34.60444",
      "Longitude": "36.28167",
    },
    {
      "Location_Name_En": "Jdeidet El Qaitaa",
      "Location_Name_Arabic ": "جديدة القيطع",
      "Latitude": "34.46579",
      "Longitude": "36.01074",
    },
    {
      "Location_Name_En": "Jebrayel",
      "Location_Name_Arabic ": "جبرائيل",
      "Latitude": "34.52220",
      "Longitude": "36.13029",
    },
    {
      "Location_Name_En": "Jichet Aali Houssein",
      "Location_Name_Arabic ": "جيشة علي حسين",
      "Latitude": "34.63362",
      "Longitude": "36.37396",
    },
    {
      "Location_Name_En": "Jouret Srar",
      "Location_Name_Arabic ": "جورة سرار",
      "Latitude": "34.63110",
      "Longitude": "36.10970",
    },
    {
      "Location_Name_En": "Kafr El Ftouh",
      "Location_Name_Arabic ": "كفر الفتوح",
      "Latitude": "34.59145",
      "Longitude": "36.20762",
    },
    {
      "Location_Name_En": "Kafroun",
      "Location_Name_Arabic ": "كفرون",
      "Latitude": "34.45678",
      "Longitude": "36.07322",
    },
    {
      "Location_Name_En": "Kalkha",
      "Location_Name_Arabic ": "كلخا",
      "Latitude": "34.60963",
      "Longitude": "36.39152",
    },
    {
      "Location_Name_En": "Karm el Aasfour",
      "Location_Name_Arabic ": "كرم عصفور",
      "Latitude": "34.52670",
      "Longitude": "36.06089",
    },
    {
      "Location_Name_En": "Karm Zebdine",
      "Location_Name_Arabic ": "كرم زبدين",
      "Latitude": "34.61876",
      "Longitude": "36.35668",
    },
    {
      "Location_Name_En": "Kawashra",
      "Location_Name_Arabic ": "الكواشرة",
      "Latitude": "34.61209",
      "Longitude": "36.20827",
    },
    {
      "Location_Name_En": "Kfar Harra",
      "Location_Name_Arabic ": "كفرحره",
      "Latitude": "34.55892",
      "Longitude": "36.13757",
    },
    {
      "Location_Name_En": "Kfar Melki",
      "Location_Name_Arabic ": "كفرملكي",
      "Latitude": "34.55423",
      "Longitude": "36.01984",
    },
    {
      "Location_Name_En": "Kfar Noun",
      "Location_Name_Arabic ": "كفرنون",
      "Latitude": "34.62517",
      "Longitude": "36.25134",
    },
    {
      "Location_Name_En": "Kfartoun",
      "Location_Name_Arabic ": "كفرتون",
      "Latitude": "34.55786",
      "Longitude": "36.35780",
    },
    {
      "Location_Name_En": "Khalsa",
      "Location_Name_Arabic ": "خالصة",
      "Latitude": "34.63330",
      "Longitude": "36.31153",
    },
    {
      "Location_Name_En": "Khane Hayat",
      "Location_Name_Arabic ": "خان الحيات",
      "Latitude": "34.56839",
      "Longitude": "36.00584",
    },
    {
      "Location_Name_En": "Khat Petrol",
      "Location_Name_Arabic ": "خط البترول",
      "Latitude": "34.69100",
      "Longitude": "36.33400",
    },
    {
      "Location_Name_En": "Khirbet Char",
      "Location_Name_Arabic ": "خربة شار",
      "Latitude": "34.57958",
      "Longitude": "36.18909",
    },
    {
      "Location_Name_En": "Khirbet Daoud",
      "Location_Name_Arabic ": "خربة داوود",
      "Latitude": "34.58714",
      "Longitude": "36.22056",
    },
    {
      "Location_Name_En": "Khirbet er Roummane",
      "Location_Name_Arabic ": "خربة الرمان",
      "Latitude": "34.62672",
      "Longitude": "36.28791",
    },
    {
      "Location_Name_En": "Khirbit Ej Jord",
      "Location_Name_Arabic ": "خربة الجرد",
      "Latitude": "34.46538",
      "Longitude": "36.12340",
    },
    {
      "Location_Name_En": "Khorab el Haiyat",
      "Location_Name_Arabic ": "خرب الحيات",
      "Latitude": "34.64845",
      "Longitude": "36.33553",
    },
    {
      "Location_Name_En": "Khraibe Akkar",
      "Location_Name_Arabic ": "الخريبة",
      "Latitude": "34.47749",
      "Longitude": "36.12587",
,
      "Old name used in V3.3": "Khraibe"
    },
    {
      "Location_Name_En": "Khreibet ej Jindi",
      "Location_Name_Arabic ": "خريبة الجندي",
      "Latitude": "34.55863",
      "Longitude": "36.09564",
    },
    {
      "Location_Name_En": "Knaisse Hnaider",
      "Location_Name_Arabic ": "كنيسة هنيدر",
      "Latitude": "34.60036",
      "Longitude": "36.44024",
,
      "Old name used in V3.3": "Knaisse"
    },
    {
      "Location_Name_En": "Knisseh",
      "Location_Name_Arabic ": "كنيسة",
      "Latitude": "34.56255",
      "Longitude": "36.12574",
    },
    {
      "Location_Name_En": "Kouikhat",
      "Location_Name_Arabic ": "الكويخات",
      "Latitude": "34.58069",
      "Longitude": "36.08931",
      ,
      "Latitude_v3.3": "34.575511",
      "Longitude_v3.3": "36.088658"
    },
    {
      "Location_Name_En": "Kousha",
      "Location_Name_Arabic ": "كوشا",
      "Latitude": "34.56086",
      "Longitude": "36.10068",
    },
    {
      "Location_Name_En": "Kroum el Arab",
      "Location_Name_Arabic ": "كروم العرب",
      "Latitude": "34.55502",
      "Longitude": "36.09216",
    },
    {
      "Location_Name_En": "Machha",
      "Location_Name_Arabic ": "مشحة",
      "Latitude": "34.54097",
      "Longitude": "36.11478",
    },
    {
      "Location_Name_En": "Machta Hammoud",
      "Location_Name_Arabic ": "مشتى حمود",
      "Latitude": "34.63106",
      "Longitude": "36.32714",
    },
    {
      "Location_Name_En": "Machta Hassan",
      "Location_Name_Arabic ": "مشتى حسن",
      "Latitude": "34.62344",
      "Longitude": "36.32252",
    },
    {
      "Location_Name_En": "Mahmoudiye",
      "Location_Name_Arabic ": "المحمودية",
      "Latitude": "34.61973",
      "Longitude": "36.26327",
    },
    {
      "Location_Name_En": "Majdla",
      "Location_Name_Arabic ": "مجدلا",
      "Latitude": "34.49778",
      "Longitude": "36.03587",
    },
    {
      "Location_Name_En": "Mar Lia Hdare",
      "Location_Name_Arabic ": "مار ليا حدار",
      "Latitude": "34.44887",
      "Longitude": "36.13547",
    },
    {
      "Location_Name_En": "Mar Sahllita",
      "Location_Name_Arabic ": "مار شليطا",
      "Latitude": "34.54906",
      "Longitude": "36.27156",
    },
    {
      "Location_Name_En": "Mar Touma",
      "Location_Name_Arabic ": "مار توما",
      "Latitude": "34.51170",
      "Longitude": "36.02705",
    },
    {
      "Location_Name_En": "Marlayet Haddara",
      "Location_Name_Arabic ": "مارليات حدارا",
      "Latitude": "34.54081",
      "Longitude": "36.03238",
    },
    {
      "Location_Name_En": "Marlayet Melhem",
      "Location_Name_Arabic ": "مار ليا ملحم",
      "Latitude": "34.53689",
      "Longitude": "36.01974",
    },
    {
      "Location_Name_En": "Martmoura",
      "Location_Name_Arabic ": "القبيات مرتموره",
      "Latitude": "34.57940",
      "Longitude": "36.27688",
    },
    {
      "Location_Name_En": "Mazraat Al Balde",
      "Location_Name_Arabic ": "مزرعة بلدة",
      "Latitude": "34.55834",
      "Longitude": "36.14933",
    },
    {
      "Location_Name_En": "Mechaeilha Hakour",
      "Location_Name_Arabic ": "مشيلحة الحاكور",
      "Latitude": "34.52639",
      "Longitude": "36.05493",
      ,
      "Old name used in V3.3": "Hakour"
    },
    {
      "Location_Name_En": "Mechmech",
      "Location_Name_Arabic ": "مشمش",
      "Latitude": "34.47216",
      "Longitude": "36.17012",
    },
    {
      "Location_Name_En": "Meghraq",
      "Location_Name_Arabic ": "المغراق",
      "Latitude": "34.61290",
      "Longitude": "36.01460",
    },
    {
      "Location_Name_En": "Meghraqa",
      "Location_Name_Arabic ": "مغراقا",
      "Latitude": "34.60170",
      "Longitude": "36.27772",
    },
    {
      "Location_Name_En": "Memnaa",
      "Location_Name_Arabic ": "ممنع",
      "Latitude": "34.50040",
      "Longitude": "36.17819",
    },
    {
      "Location_Name_En": "Mhamra",
      "Location_Name_Arabic ": "المحمرة",
      "Latitude": "34.50450",
      "Longitude": "35.96950",
      ,
      "Latitude_v3.3": "34.5045",
      "Longitude_v3.3": "35.9695"
    },
    {
      "Location_Name_En": "Mhatat Siket el Hadid",
      "Location_Name_Arabic ": "محطة سكة الحديد",
      "Latitude": "34.63340",
      "Longitude": "36.37816",
    },
    {
      "Location_Name_En": "Minyara",
      "Location_Name_Arabic ": "منيارة",
      "Latitude": "34.53210",
      "Longitude": "36.05990",
    },
    {
      "Location_Name_En": "Mouanse",
      "Location_Name_Arabic ": "المونسه",
      "Latitude": "34.59680",
      "Longitude": "36.38595",
    },
    {
      "Location_Name_En": "Mounjez",
      "Location_Name_Arabic ": "منجز",
      "Latitude": "34.61546",
      "Longitude": "36.24435",
    },
    {
      "Location_Name_En": "Mqaible",
      "Location_Name_Arabic ": "المقيبلة",
      "Latitude": "34.64463",
      "Longitude": "36.35286",
    },
    {
      "Location_Name_En": "Mqaitaa",
      "Location_Name_Arabic ": "مقيطع السماكلي",
      "Latitude": "34.54389",
      "Longitude": "36.01111",
    },
    {
      "Location_Name_En": "Mrah Aakkar",
      "Location_Name_Arabic ": "مراه عكار",
      "Latitude": "34.54714",
      "Longitude": "36.23868",
    },
    {
      "Location_Name_En": "Mrah Al Khawkh",
      "Location_Name_Arabic ": "مراح الخوخ",
      "Latitude": "34.58764",
      "Longitude": "36.35343",
    },
    {
      "Location_Name_En": "Mrah el Aainouni",
      "Location_Name_Arabic ": "مراه العينوني",
      "Latitude": "34.50132",
      "Longitude": "36.09240",
    },
    {
      "Location_Name_En": "Mrah el Bsatine",
      "Location_Name_Arabic ": "مراح البساتين",
      "Latitude": "34.57526",
      "Longitude": "36.34654",
    },
    {
      "Location_Name_En": "Mrah Qamar ed Dine",
      "Location_Name_Arabic ": "مراح قمر الدين",
      "Latitude": "34.45758",
      "Longitude": "36.17256",
    },
    {
      "Location_Name_En": "Msalla",
      "Location_Name_Arabic ": "مصلا",
      "Latitude": "34.59137",
      "Longitude": "36.15876",
    },
    {
      "Location_Name_En": "Mzeihmeh",
      "Location_Name_Arabic ": "مزيحمة",
      "Latitude": "34.60960",
      "Longitude": "36.14100",
    },
    {
      "Location_Name_En": "Nabaa el Ghzaile",
      "Location_Name_Arabic ": "نبع الغزيلة",
      "Latitude": "34.59337",
      "Longitude": "36.10316",
    },
    {
      "Location_Name_En": "Nahr El Bared",
      "Location_Name_Arabic ": "نهر البارد",
      "Latitude": "34.51207",
      "Longitude": "35.95991",
      ,
      "Latitude_v3.3": "34.504952",
      "Longitude_v3.3": "35.962904"
    },
    {
      "Location_Name_En": "Nahriye",
      "Location_Name_Arabic ": "النهريه ",
      "Latitude": "34.59983",
      "Longitude": "36.26951",
    },
    {
      "Location_Name_En": "Nassriye",
      "Location_Name_Arabic ": "ناصرية",
      "Latitude": "34.67872",
      "Longitude": "36.33358",
    },
    {
      "Location_Name_En": "Nfaisseh",
      "Location_Name_Arabic ": "النفيسة",
      "Latitude": "34.54787",
      "Longitude": "36.08558",
    },
    {
      "Location_Name_En": "Noura",
      "Location_Name_Arabic ": "النوره",
      "Latitude": "34.62029",
      "Longitude": "36.18328",
    },
    {
      "Location_Name_En": "Noura el Faouqa et el Tahta",
      "Location_Name_Arabic ": "نورا الفوقا و التحتى",
      "Latitude": "34.59470",
      "Longitude": "36.19610",
    },
    {
      "Location_Name_En": "Noura el Tahta",
      "Location_Name_Arabic ": "نورا التحتا",
      "Latitude": "34.62560",
      "Longitude": "36.18466",
    },
    {
      "Location_Name_En": "Ouadi Ej jamous",
      "Location_Name_Arabic ": "وادي الجاموس",
      "Latitude": "34.49858",
      "Longitude": "36.01414",
    },
    {
      "Location_Name_En": "Qaabrine",
      "Location_Name_Arabic ": "قعبرين",
      "Latitude": "34.56779",
      "Longitude": "36.03229",
    },
    {
      "Location_Name_En": "Qabaait",
      "Location_Name_Arabic ": "قبعيت",
      "Latitude": "34.44901",
      "Longitude": "36.09604",
    },
    {
      "Location_Name_En": "Qanbar",
      "Location_Name_Arabic ": "القنبر",
      "Latitude": "34.56889",
      "Longitude": "36.09833",
    },
    {
      "Location_Name_En": "Qarha Akkar",
      "Location_Name_Arabic ": "قرحه عكار",
      "Latitude": "34.62142",
      "Longitude": "36.44403",
    },
    {
      "Location_Name_En": "Qarqaf",
      "Location_Name_Arabic ": "القرقف",
      "Latitude": "34.48455",
      "Longitude": "36.01972",
    },
    {
      "Location_Name_En": "Qbaiyat el Gharbiye",
      "Location_Name_Arabic ": "القبيات الغربية",
      "Latitude": "34.57947",
      "Longitude": "36.25986",
    },
    {
      "Location_Name_En": "Qbaiyat ez Zouq",
      "Location_Name_Arabic ": "القبيات الذوق",
      "Latitude": "34.56871",
      "Longitude": "36.28293",
    },
    {
      "Location_Name_En": "Qboula",
      "Location_Name_Arabic ": "قبولا",
      "Latitude": "34.53366",
      "Longitude": "36.18063",
    },
    {
      "Location_Name_En": "Qbour El Bid",
      "Location_Name_Arabic ": "قبور البيد",
      "Latitude": "34.61540",
      "Longitude": "36.29609",
    },
    {
      "Location_Name_En": "Qinye",
      "Location_Name_Arabic ": "قنية",
      "Latitude": "34.58535",
      "Longitude": "36.36638",
    },
    {
      "Location_Name_En": "Qloud El-Baqieh",
      "Location_Name_Arabic ": "قلود الباقية",
      "Latitude": "34.49673",
      "Longitude": "36.05840",
    },
    {
      "Location_Name_En": "Qochloq",
      "Location_Name_Arabic ": "قشلق",
      "Latitude": "34.61434",
      "Longitude": "36.15581",
    },
    {
      "Location_Name_En": "Qoubaiyat",
      "Location_Name_Arabic ": "القبيات",
      "Latitude": "34.57172",
      "Longitude": "36.28040",
    },
    {
      "Location_Name_En": "Qoubbet Chamra",
      "Location_Name_Arabic ": "قبة شمرا",
      "Latitude": "34.54279",
      "Longitude": "36.00639",
    },
    {
      "Location_Name_En": "Qraiyat",
      "Location_Name_Arabic ": "القريات",
      "Latitude": "34.48058",
      "Longitude": "36.15332",
    },
    {
      "Location_Name_En": "Rahbe",
      "Location_Name_Arabic ": "رحبة",
      "Latitude": "34.50565",
      "Longitude": "36.14458",
    },
    {
      "Location_Name_En": "Rajm Hssein",
      "Location_Name_Arabic ": "رجم حسين",
      "Latitude": "34.60644",
      "Longitude": "36.38243",
    },
    {
      "Location_Name_En": "Rajm Issa",
      "Location_Name_Arabic ": "رجم عيسى",
      "Latitude": "34.61770",
      "Longitude": "36.37690",
    },
    {
      "Location_Name_En": "Rajm Khalaf",
      "Location_Name_Arabic ": "رجم خلف",
      "Latitude": "34.61914",
      "Longitude": "36.39144",
    },
    {
      "Location_Name_En": "Rihaniye",
      "Location_Name_Arabic ": "الريحانية",
      "Latitude": "34.58380",
      "Longitude": "36.11562",
    },
    {
      "Location_Name_En": "Rmah En Nahriyeh",
      "Location_Name_Arabic ": "رماح النهريه",
      "Latitude": "34.62267",
      "Longitude": "36.26420",
    },
    {
      "Location_Name_En": "Rmoul",
      "Location_Name_Arabic ": "رمول",
      "Latitude": "34.57390",
      "Longitude": "36.00500",
    },
    {
      "Location_Name_En": "Saadine",
      "Location_Name_Arabic ": "سعدين",
      "Latitude": "34.59640",
      "Longitude": "36.09049",
    },
    {
      "Location_Name_En": "Sadaqa",
      "Location_Name_Arabic ": "صدقة",
      "Latitude": "34.46610",
      "Longitude": "36.15180",
    },
    {
      "Location_Name_En": "Sahle",
      "Location_Name_Arabic ": "السهله",
      "Latitude": "34.60411",
      "Longitude": "36.34011",
    },
    {
      "Location_Name_En": "Saidnaya",
      "Location_Name_Arabic ": "السنديانة",
      "Latitude": "34.58922",
      "Longitude": "36.12044",
    },
    {
      "Location_Name_En": "Saissouq",
      "Location_Name_Arabic ": "سيسوق",
      "Latitude": "34.48913",
      "Longitude": "36.05150",
    },
    {
      "Location_Name_En": "Sammouniye",
      "Location_Name_Arabic ": "السمونيه",
      "Latitude": "34.57380",
      "Longitude": "36.04762",
    },
    {
      "Location_Name_En": "Saoualha",
      "Location_Name_Arabic ": "ساولها",
      "Latitude": "34.61971",
      "Longitude": "36.38358",
    },
    {
      "Location_Name_En": "Sbagha",
      "Location_Name_Arabic ": "صباغا",
      "Latitude": "34.52656",
      "Longitude": "36.13051",
    },
    {
      "Location_Name_En": "Semmaqiye",
      "Location_Name_Arabic ": "السماقية",
      "Latitude": "34.63952",
      "Longitude": "36.00236",
    },
    {
      "Location_Name_En": "Semmaqli",
      "Location_Name_Arabic ": "سمقالي",
      "Latitude": "34.54300",
      "Longitude": "36.01460",
    },
    {
      "Location_Name_En": "Sfaynet El-Qaitaa",
      "Location_Name_Arabic ": "سفينة القيطع",
      "Latitude": "34.46099",
      "Longitude": "36.02803",
    },
    {
      "Location_Name_En": "Sfinet ed Dreib",
      "Location_Name_Arabic ": "سفينة الدريب",
      "Latitude": "34.57233",
      "Longitude": "36.15701",
    },
    {
      "Location_Name_En": "Shaqdouf Aakkar",
      "Location_Name_Arabic ": "شقدوف عكار",
      "Latitude": "34.52480",
      "Longitude": "36.21808",
    },
    {
      "Location_Name_En": "Sindianet Zeidane",
      "Location_Name_Arabic ": "سنديانة زيدان",
      "Latitude": "34.57652",
      "Longitude": "36.24438",
    },
    {
      "Location_Name_En": "Srar",
      "Location_Name_Arabic ": "سرار",
      "Latitude": "34.61673",
      "Longitude": "36.13208",
    },
    {
      "Location_Name_En": "Takrit",
      "Location_Name_Arabic ": "تكريت",
      "Latitude": "34.51892",
      "Longitude": "36.15714",
    },
    {
      "Location_Name_En": "Tal Meaayan",
      "Location_Name_Arabic ": "تلمعيان",
      "Latitude": "34.59672",
      "Longitude": "36.04111",
    },
    {
      "Location_Name_En": "Tall Aabbas Ech-Charqi",
      "Location_Name_Arabic ": "تل عباس الشرقي",
      "Latitude": "34.59593",
      "Longitude": "36.07071",
      ,
      "Old name used in V3.3": "Tall Aabbas"
    },
    {
      "Location_Name_En": "Tall Aabbas el Gharbi",
      "Location_Name_Arabic ": "تلعباس غربي",
      "Latitude": "34.58368",
      "Longitude": "36.07599",
    },
    {
      "Location_Name_En": "Tall Bire",
      "Location_Name_Arabic ": "تلبيرة",
      "Latitude": "34.62299",
      "Longitude": "36.05694",
    },
    {
      "Location_Name_En": "Tall Hmayra",
      "Location_Name_Arabic ": "تلحميرة",
      "Latitude": "34.62736",
      "Longitude": "36.07565",
    },
    {
      "Location_Name_En": "Tallet el Mjabber",
      "Location_Name_Arabic ": "تلة المجابر",
      "Latitude": "34.57913",
      "Longitude": "36.07817",
    },
    {
      "Location_Name_En": "Tallet ez Zefir",
      "Location_Name_Arabic ": "تلة الزفير",
      "Latitude": "34.57599",
      "Longitude": "36.08204",
    },
    {
      "Location_Name_En": "Tashea",
      "Location_Name_Arabic ": "تاشع",
      "Latitude": "34.49808",
      "Longitude": "36.18696",
    },
    {
      "Location_Name_En": "Tell Bibi",
      "Location_Name_Arabic ": "تلبيبة",
      "Latitude": "34.61788",
      "Longitude": "36.00589",
    },
    {
      "Location_Name_En": "Tell Hayat",
      "Location_Name_Arabic ": "تل الحيات",
      "Latitude": "34.56331",
      "Longitude": "36.00180",
    },
    {
      "Location_Name_En": "Tell Kindi",
      "Location_Name_Arabic ": "تل كندي",
      "Latitude": "34.61145",
      "Longitude": "36.07367",
    },
    {
      "Location_Name_En": "Tell Kiri",
      "Location_Name_Arabic ": "تل كيري",
      "Latitude": "34.59768",
      "Longitude": "36.03758",
    },
    {
      "Location_Name_En": "Tell Sebael",
      "Location_Name_Arabic ": "تل سبعل",
      "Latitude": "34.54998",
      "Longitude": "36.02960",
    },
    {
      "Location_Name_En": "Tleil",
      "Location_Name_Arabic ": "التليل",
      "Latitude": "34.59538",
      "Longitude": "36.14035",
    },
    {
      "Location_Name_En": "Wadi Al Hoor",
      "Location_Name_Arabic ": "وادي الحور",
      "Latitude": "34.60923",
      "Longitude": "36.15373",
    },
    {
      "Location_Name_En": "Wadi Khaled",
      "Location_Name_Arabic ": "وادي خالد",
      "Latitude": "34.62552",
      "Longitude": "36.39797",
    },
    {
      "Location_Name_En": "Zouaitini Akkar",
      "Location_Name_Arabic ": "الزويتينة عكار",
      "Latitude": "34.61770",
      "Longitude": "36.14736",
,
      "Old name used in V3.3": "Zouaitini"
    },
    {
      "Location_Name_En": "Zouarib",
      "Location_Name_Arabic ": "الزواريب",
      "Latitude": "34.53131",
      "Longitude": "36.06935",
    },
    {
      "Location_Name_En": "Zouk Haddara",
      "Location_Name_Arabic ": "ذوق حدارة",
      "Latitude": "34.51527",
      "Longitude": "36.02930",
    },
    {
      "Location_Name_En": "Zouq el Hassineh",
      "Location_Name_Arabic ": "ذوق الحصينة",
      "Latitude": "34.52128",
      "Longitude": "36.03467",
    },
    {
      "Location_Name_En": "Zouq El Mqachrine",
      "Location_Name_Arabic ": "ذوق المقشرين",
      "Latitude": "34.52012",
      "Longitude": "36.02943",
    },
    {
      "Location_Name_En": "Zouq El-Hbalsa",
      "Location_Name_Arabic ": "ذوق الحبالصة",
      "Latitude": "34.51698",
      "Longitude": "36.03845",
    },
    {
      "Location_Name_En": "Aadous",
      "Location_Name_Arabic ": "عدّوس",
      "Latitude": "34.03068",
      "Longitude": "36.15720",
    },
    {
      "Location_Name_En": "Aallaq",
      "Location_Name_Arabic ": "علاق",
      "Latitude": "34.02800",
      "Longitude": "36.10378",
    },
    {
      "Location_Name_En": "Aamchki",
      "Location_Name_Arabic ": "عمشكي",
      "Latitude": "33.99032",
      "Longitude": "36.26385",
    },
    {
      "Location_Name_En": "Aarsal",
      "Location_Name_Arabic ": "عرسال",
      "Latitude": "34.17924",
      "Longitude": "36.41959",
    },
    {
      "Location_Name_En": "Aayoun Orghoush",
      "Location_Name_Arabic ": "عيون ارغش",
      "Latitude": "34.26316",
      "Longitude": "36.12831",
    },
    {
      "Location_Name_En": "Ain Bourday",
      "Location_Name_Arabic ": "عين بورداي",
      "Latitude": "33.99128",
      "Longitude": "36.20083",
    },
    {
      "Location_Name_En": "Ain Ej Jaouze",
      "Location_Name_Arabic ": "عين الجوزة",
      "Latitude": "33.83902",
      "Longitude": "36.31396",
    },
    {
      "Location_Name_En": "Ain El Bnaiye",
      "Location_Name_Arabic ": "عين البنية",
      "Latitude": "33.91164",
      "Longitude": "36.22587",
    },
    {
      "Location_Name_En": "Ain es Saouda",
      "Location_Name_Arabic ": "عين السودا",
      "Latitude": "33.99741",
      "Longitude": "36.09743",
    },
    {
      "Location_Name_En": "Ainata",
      "Location_Name_Arabic ": "عيناتا",
      "Latitude": "34.18664",
      "Longitude": "36.08033",
    },
    {
      "Location_Name_En": "Al Ansar Baalbek",
      "Location_Name_Arabic ": "الأنصار بعلبك",
      "Latitude": "33.97449",
      "Longitude": "36.15321",
    },
    {
      "Location_Name_En": "Baalbek",
      "Location_Name_Arabic ": "بعلبك",
      "Latitude": "34.00519",
      "Longitude": "36.20796",
    },
    {
      "Location_Name_En": "Baayoun",
      "Location_Name_Arabic ": "قاع بعيون",
      "Latitude": "34.29972",
      "Longitude": "36.56745",
    },
    {
      "Location_Name_En": "Barqa",
      "Location_Name_Arabic ": "برقا",
      "Latitude": "34.17157",
      "Longitude": "36.14117",
    },
    {
      "Location_Name_En": "Bechouat",
      "Location_Name_Arabic ": "بشوات",
      "Latitude": "34.15036",
      "Longitude": "36.13434",
    },
    {
      "Location_Name_En": "Bednayel",
      "Location_Name_Arabic ": "بدنايل",
      "Latitude": "33.91870",
      "Longitude": "36.00438",
    },
    {
      "Location_Name_En": "Beit Chama",
      "Location_Name_Arabic ": "بيت شاما",
      "Latitude": "33.92524",
      "Longitude": "36.02267",
    },
    {
      "Location_Name_En": "Beit es Satiti",
      "Location_Name_Arabic ": "بيت الستيته",
      "Latitude": "34.14003",
      "Longitude": "36.11725",
    },
    {
      "Location_Name_En": "Beit Habchi",
      "Location_Name_Arabic ": "بيت حبشي",
      "Latitude": "34.15389",
      "Longitude": "36.09870",
    },
    {
      "Location_Name_En": "Beit Mchik",
      "Location_Name_Arabic ": "مزرعة بيت مشيك",
      "Latitude": "34.06429",
      "Longitude": "35.98839",
      ,
      "Latitude_v3.3": "34.044544",
      "Longitude_v3.3": "36.029081"
    },
    {
      "Location_Name_En": "Bejjaje",
      "Location_Name_Arabic ": "بجاجة",
      "Latitude": "34.22781",
      "Longitude": "36.35058",
    },
    {
      "Location_Name_En": "Betdaai",
      "Location_Name_Arabic ": "بتدعي",
      "Latitude": "34.11268",
      "Longitude": "36.10774",
    },
    {
      "Location_Name_En": "Blaiqa",
      "Location_Name_Arabic ": "بليقة",
      "Latitude": "34.15026",
      "Longitude": "36.09909",
    },
    {
      "Location_Name_En": "Boudai",
      "Location_Name_Arabic ": "بوداي",
      "Latitude": "34.06152",
      "Longitude": "36.05921",
    },
    {
      "Location_Name_En": "Britel",
      "Location_Name_Arabic ": "بريتال",
      "Latitude": "33.93472",
      "Longitude": "36.15115",
    },
    {
      "Location_Name_En": "Bsayleh al Fawka",
      "Location_Name_Arabic ": "بصيلة الفوقا",
      "Latitude": "34.13527",
      "Longitude": "36.11741",
    },
    {
      "Location_Name_En": "Bsayleh al Tahta",
      "Location_Name_Arabic ": "بصيلة التحتا",
      "Latitude": "34.13193",
      "Longitude": "36.12019",
    },
    {
      "Location_Name_En": "Chaat",
      "Location_Name_Arabic ": "شعت",
      "Latitude": "34.14220",
      "Longitude": "36.23118",
    },
    {
      "Location_Name_En": "Chlifa",
      "Location_Name_Arabic ": "شليفا",
      "Latitude": "34.08562",
      "Longitude": "36.09912",
    },
    {
      "Location_Name_En": "Chmistar",
      "Location_Name_Arabic ": "شمسطار",
      "Latitude": "33.96409",
      "Longitude": "36.01736",
    },
    {
      "Location_Name_En": "Daouret en Naml",
      "Location_Name_Arabic ": "دورة النمل",
      "Latitude": "34.25917",
      "Longitude": "36.26988",
    },
    {
      "Location_Name_En": "Dar el Ouassaa",
      "Location_Name_Arabic ": "دار الواسعة",
      "Latitude": "34.10672",
      "Longitude": "36.05636",
    },
    {
      "Location_Name_En": "Deir El Ahmar",
      "Location_Name_Arabic ": "دير الاحمر",
      "Latitude": "34.12489",
      "Longitude": "36.12764",
    },
    {
      "Location_Name_En": "Deir Mar Maroun Baalbek",
      "Location_Name_Arabic ": "دير مار مارون بعلبك",
      "Latitude": "34.35228",
      "Longitude": "36.37318",
,
      "Old name used in V3.3": "Deir Mar Maroun "
    },
    {
      "Location_Name_En": "Douris",
      "Location_Name_Arabic ": "دوريس",
      "Latitude": "33.98777",
      "Longitude": "36.17845",
    },
    {
      "Location_Name_En": "El Aaiara",
      "Location_Name_Arabic ": "عيارة",
      "Latitude": "34.23862",
      "Longitude": "36.11113",
    },
    {
      "Location_Name_En": "El Ain",
      "Location_Name_Arabic ": "العين",
      "Latitude": "34.22605",
      "Longitude": "36.37803",
    },
    {
      "Location_Name_En": "El Barake",
      "Location_Name_Arabic ": "البركة",
      "Latitude": "34.23541",
      "Longitude": "36.10663",
    },
    {
      "Location_Name_En": "El Faqrat",
      "Location_Name_Arabic ": "فقرات",
      "Latitude": "34.25140",
      "Longitude": "36.12222",
    },
    {
      "Location_Name_En": "El Laouze",
      "Location_Name_Arabic ": "اللوزة",
      "Latitude": "33.90340",
      "Longitude": "35.99807",
    },
    {
      "Location_Name_En": "El Maalqa",
      "Location_Name_Arabic ": "معلقة الجديدة",
      "Latitude": "34.25150",
      "Longitude": "36.38961",
    },
    {
      "Location_Name_En": "El Marmagha",
      "Location_Name_Arabic ": "مرماغا",
      "Latitude": "34.10489",
      "Longitude": "36.04791",
    },
    {
      "Location_Name_En": "El Qaa",
      "Location_Name_Arabic ": "القاع",
      "Latitude": "34.34428",
      "Longitude": "36.47324",
    },
    {
      "Location_Name_En": "El Qerrami",
      "Location_Name_Arabic ": "قرامي",
      "Latitude": "34.14223",
      "Longitude": "36.10075",
    },
    {
      "Location_Name_En": "En Nouqra",
      "Location_Name_Arabic ": "نقرة",
      "Latitude": "34.15374",
      "Longitude": "36.32637",
    },
    {
      "Location_Name_En": "Fakehe",
      "Location_Name_Arabic ": "فاكهة",
      "Latitude": "34.24470",
      "Longitude": "36.40285",
    },
    {
      "Location_Name_En": "Flaoui",
      "Location_Name_Arabic ": "فلاوي",
      "Latitude": "34.08256",
      "Longitude": "36.05671",
    },
    {
      "Location_Name_En": "Freij",
      "Location_Name_Arabic ": "فريج",
      "Latitude": "33.94244",
      "Longitude": "36.07226",
    },
    {
      "Location_Name_En": "Hadet Hermel",
      "Location_Name_Arabic ": "حدت الهرمل",
      "Latitude": "34.00135",
      "Longitude": "36.02774",
      ,
      "Old name used in V3.3": "Hadet"
    },
    {
      "Location_Name_En": "Hai el Mathane",
      "Location_Name_Arabic ": "حي المطحنة",
      "Latitude": "34.20784",
      "Longitude": "36.32116",
    },
    {
      "Location_Name_En": "Halbata",
      "Location_Name_Arabic ": "حلباتا",
      "Latitude": "34.25493",
      "Longitude": "36.28745",
    },
    {
      "Location_Name_En": "Ham",
      "Location_Name_Arabic ": "حام",
      "Latitude": "33.87435",
      "Longitude": "36.20111",
    },
    {
      "Location_Name_En": "Haouch Barada",
      "Location_Name_Arabic ": "حوش بردى",
      "Latitude": "34.01107",
      "Longitude": "36.11953",
    },
    {
      "Location_Name_En": "Haouch Ed Dahab",
      "Location_Name_Arabic ": "حوش الدهب",
      "Latitude": "34.02528",
      "Longitude": "36.11925",
    },
    {
      "Location_Name_En": "Haouch En Nabi",
      "Location_Name_Arabic ": "حوش النبي",
      "Latitude": "33.93025",
      "Longitude": "36.06666",
    },
    {
      "Location_Name_En": "Haouch Snaid",
      "Location_Name_Arabic ": "حوش سنيد",
      "Latitude": "33.94123",
      "Longitude": "36.06567",
    },
    {
      "Location_Name_En": "Haouch Tall Safiye",
      "Location_Name_Arabic ": "حوش تل صفية",
      "Latitude": "34.02475",
      "Longitude": "36.13910",
    },
    {
      "Location_Name_En": "Haouerte",
      "Location_Name_Arabic ": "حوارته",
      "Latitude": "34.26243",
      "Longitude": "36.57299",
    },
    {
      "Location_Name_En": "Haour Taala",
      "Location_Name_Arabic ": "حور تعلا",
      "Latitude": "33.91838",
      "Longitude": "36.14046",
    },
    {
      "Location_Name_En": "Harabta",
      "Location_Name_Arabic ": "حربتا",
      "Latitude": "34.20786",
      "Longitude": "36.26540",
      ,
      "Old name used in V3.3": "Harata"
    },
    {
      "Location_Name_En": "Harfouch",
      "Location_Name_Arabic ": "حرفوش",
      "Latitude": "34.19966",
      "Longitude": "36.24400",
    },
    {
      "Location_Name_En": "Hfayer",
      "Location_Name_Arabic ": "حفاير",
      "Latitude": "34.07896",
      "Longitude": "36.07009",
    },
    {
      "Location_Name_En": "Hizzine",
      "Location_Name_Arabic ": "حزين",
      "Latitude": "33.96937",
      "Longitude": "36.09342",
    },
    {
      "Location_Name_En": "Hosn ech Chadoura",
      "Location_Name_Arabic ": "حصن الشادورا ",
      "Latitude": "33.95099",
      "Longitude": "36.24467",
    },
    {
      "Location_Name_En": "Houch Er Rafqa",
      "Location_Name_Arabic ": "حوش الرافقة",
      "Latitude": "33.91863",
      "Longitude": "36.04097",
    },
    {
      "Location_Name_En": "Iaat",
      "Location_Name_Arabic ": "ايعات",
      "Latitude": "34.03692",
      "Longitude": "36.17142",
    },
    {
      "Location_Name_En": "Jabaa",
      "Location_Name_Arabic ": "جبعا",
      "Latitude": "34.00796",
      "Longitude": "36.03951",
    },
    {
      "Location_Name_En": "Jabal Ech Chaaibe",
      "Location_Name_Arabic ": "جبل الشعيبة",
      "Latitude": "33.92861",
      "Longitude": "36.23692",
    },
    {
      "Location_Name_En": "Jabboule",
      "Location_Name_Arabic ": "جبولة",
      "Latitude": "34.23268",
      "Longitude": "36.33763",
    },
    {
      "Location_Name_En": "Janta",
      "Location_Name_Arabic ": "جنتا",
      "Latitude": "33.85742",
      "Longitude": "36.10647",
    },
    {
      "Location_Name_En": "Jdaide Fekehe",
      "Location_Name_Arabic ": "جديدة الفاكهة",
      "Latitude": "34.24780",
      "Longitude": "36.38707",
    },
    {
      "Location_Name_En": "Joubaniyeh",
      "Location_Name_Arabic ": "جوبانية",
      "Latitude": "34.18263",
      "Longitude": "36.18063",
    },
    {
      "Location_Name_En": "Kfar Dabach",
      "Location_Name_Arabic ": "كفر دبش",
      "Latitude": "33.94534",
      "Longitude": "36.03361",
    },
    {
      "Location_Name_En": "Kfar Dane",
      "Location_Name_Arabic ": "كفر دان",
      "Latitude": "34.01130",
      "Longitude": "36.04528",
    },
    {
      "Location_Name_En": "Kharayeb",
      "Location_Name_Arabic ": "الخرائب",
      "Latitude": "34.24066",
      "Longitude": "36.30154",
    },
    {
      "Location_Name_En": "Khermateh",
      "Location_Name_Arabic ": "خورماتا",
      "Latitude": "34.09716",
      "Longitude": "36.25993",
    },
    {
      "Location_Name_En": "Khirbet Daoud Baalbek",
      "Location_Name_Arabic ": "خربة داوود بعلبك",
      "Latitude": "34.21258",
      "Longitude": "36.54608",
      ,
      "Old name used in V3.3": "Khirbet Daoud  "
    },
    {
      "Location_Name_En": "Khirbet et Tine",
      "Location_Name_Arabic ": "خربة التينه",
      "Latitude": "34.23316",
      "Longitude": "36.53432",
    },
    {
      "Location_Name_En": "Khirbet Haouerte",
      "Location_Name_Arabic ": "خربة حوارته",
      "Latitude": "34.26792",
      "Longitude": "36.57509",
    },
    {
      "Location_Name_En": "Khirbet Younine",
      "Location_Name_Arabic ": "خربة يونين",
      "Latitude": "34.15740",
      "Longitude": "36.49295",
    },
    {
      "Location_Name_En": "Khodor",
      "Location_Name_Arabic ": "خضر ",
      "Latitude": "33.90371",
      "Longitude": "36.11954",
    },
    {
      "Location_Name_En": "Khraibe",
      "Location_Name_Arabic ": "خريبة ",
      "Latitude": "33.87005",
      "Longitude": "36.16228",
    },
    {
      "Location_Name_En": "Knaisse",
      "Location_Name_Arabic ": "كنيسة ",
      "Latitude": "34.11576",
      "Longitude": "36.16352",
    },
    {
      "Location_Name_En": "Laboue",
      "Location_Name_Arabic ": "لبوة",
      "Latitude": "34.19543",
      "Longitude": "36.35558",
    },
    {
      "Location_Name_En": "Maarboun",
      "Location_Name_Arabic ": "معربون",
      "Latitude": "33.85050",
      "Longitude": "36.18789",
    },
    {
      "Location_Name_En": "Mahatta",
      "Location_Name_Arabic ": "المحطة",
      "Latitude": "34.19889",
      "Longitude": "36.10139",
      ,
      "Latitude_v3.3": "34.198889",
      "Longitude_v3.3": "36.101389"
    },
    {
      "Location_Name_En": "Majdaloun",
      "Location_Name_Arabic ": "مجدلون",
      "Latitude": "33.99036",
      "Longitude": "36.13376",
    },
    {
      "Location_Name_En": "Maql el Bouadte",
      "Location_Name_Arabic ": "مقل البوادتي",
      "Latitude": "34.09479",
      "Longitude": "36.05146",
    },
    {
      "Location_Name_En": "Maqne",
      "Location_Name_Arabic ": "مقنة",
      "Latitude": "34.07932",
      "Longitude": "36.20768",
    },
    {
      "Location_Name_En": "Masnaa",
      "Location_Name_Arabic ": "المصنع",
      "Latitude": "33.90997",
      "Longitude": "36.00882",
    },
    {
      "Location_Name_En": "Masnaa es Zohr",
      "Location_Name_Arabic ": "مصنع الزهر",
      "Latitude": "34.01971",
      "Longitude": "35.99462",
    },
    {
      "Location_Name_En": "Mathanet Mousrayeh",
      "Location_Name_Arabic ": "مطحنة مصراية",
      "Latitude": "33.92069",
      "Longitude": "36.04871",
    },
    {
      "Location_Name_En": "Mazraat al Ramassy",
      "Location_Name_Arabic ": "مزرعة الرماسا",
      "Latitude": "34.04276",
      "Longitude": "36.02198",
    },
    {
      "Location_Name_En": "Mazraat Al Souaydane",
      "Location_Name_Arabic ": "مزرعة آل سويدان ",
      "Latitude": "33.97715",
      "Longitude": "36.06763",
    },
    {
      "Location_Name_En": "Mazraat al Takch",
      "Location_Name_Arabic ": "مزرعة بيت طقش",
      "Latitude": "33.92891",
      "Longitude": "36.03456",
    },
    {
      "Location_Name_En": "Mazraat Beit el Ghoussain",
      "Location_Name_Arabic ": "مزرعة بيت الغصين",
      "Latitude": "34.11536",
      "Longitude": "36.08376",
    },
    {
      "Location_Name_En": "Mazraat Beit Slaibi",
      "Location_Name_Arabic ": "مزرعة بيت صليبي",
      "Latitude": "33.97235",
      "Longitude": "35.98503",
    },
    {
      "Location_Name_En": "Mazraat Ed Dallil",
      "Location_Name_Arabic ": "مزرعة الضليل",
      "Latitude": "34.04076",
      "Longitude": "36.04996",
    },
    {
      "Location_Name_En": "Mazraat ed Dhour",
      "Location_Name_Arabic ": "مزرعة الضهور",
      "Latitude": "34.03515",
      "Longitude": "36.03389",
    },
    {
      "Location_Name_En": "Mazraat Es Saiyed",
      "Location_Name_Arabic ": "مزرعة السيد",
      "Latitude": "34.10172",
      "Longitude": "36.08569",
    },
    {
      "Location_Name_En": "Mazraat Matar",
      "Location_Name_Arabic ": "مزرعة مطر",
      "Latitude": "34.09852",
      "Longitude": "36.09032",
    },
    {
      "Location_Name_En": "Mazraat Oumm Aali",
      "Location_Name_Arabic ": "مزرعة ام علي",
      "Latitude": "34.04517",
      "Longitude": "36.03933",
    },
    {
      "Location_Name_En": "Mchaitiye",
      "Location_Name_Arabic ": "مشيتية",
      "Latitude": "34.15539",
      "Longitude": "36.08352",
    },
    {
      "Location_Name_En": "Mehairfe",
      "Location_Name_Arabic ": "محيرفة",
      "Latitude": "34.13945",
      "Longitude": "36.15288",
    },
    {
      "Location_Name_En": "Mhattat Ras Baalbeck",
      "Location_Name_Arabic ": "المحطة راس بعلبك",
      "Latitude": "34.29742",
      "Longitude": "36.42442",
    },
    {
      "Location_Name_En": "Mkaybel Al Kala'",
      "Location_Name_Arabic ": "مقيال القلعة",
      "Latitude": "34.21771",
      "Longitude": "36.09110",
    },
    {
      "Location_Name_En": "Moqraq",
      "Location_Name_Arabic ": "المقرق",
      "Latitude": "34.17360",
      "Longitude": "36.33423",
    },
    {
      "Location_Name_En": "Mrah Beit Aassaf",
      "Location_Name_Arabic ": "مراح بيت عساف",
      "Latitude": "34.06388",
      "Longitude": "36.02035",
    },
    {
      "Location_Name_En": "Mrah Beit el Qazah",
      "Location_Name_Arabic ": "مراح بيت القزح",
      "Latitude": "34.12529",
      "Longitude": "36.11449",
    },
    {
      "Location_Name_En": "Mrah Beit Slim",
      "Location_Name_Arabic ": "مراح بيت سليم",
      "Latitude": "34.05819",
      "Longitude": "36.03984",
    },
    {
      "Location_Name_En": "Mrah Bou Brahim",
      "Location_Name_Arabic ": "مراح بو براهيم",
      "Latitude": "34.06774",
      "Longitude": "36.03959",
    },
    {
      "Location_Name_En": "Mrah Bou Chahine",
      "Location_Name_Arabic ": "مراح بو شاهين",
      "Latitude": "34.11544",
      "Longitude": "36.08974",
    },
    {
      "Location_Name_En": "Mrah ech Chmis",
      "Location_Name_Arabic ": "مراح الشميس",
      "Latitude": "34.07786",
      "Longitude": "36.04493",
    },
    {
      "Location_Name_En": "Mrah ech Choaab",
      "Location_Name_Arabic ": "مراح الشعاب",
      "Latitude": "34.23251",
      "Longitude": "36.28189",
    },
    {
      "Location_Name_En": "Mrah ej Jamal",
      "Location_Name_Arabic ": "مراح ",
      "Latitude": "34.05457",
      "Longitude": "36.03529",
    },
    {
      "Location_Name_En": "Mrah ej Jeddaoui",
      "Location_Name_Arabic ": "مراح الجداوي",
      "Latitude": "34.07420",
      "Longitude": "36.04927",
    },
    {
      "Location_Name_En": "Mrah El Aabed",
      "Location_Name_Arabic ": "مراه العبد",
      "Latitude": "34.24003",
      "Longitude": "36.26441",
    },
    {
      "Location_Name_En": "Mrah El Aaouja",
      "Location_Name_Arabic ": "مراح العوجا ",
      "Latitude": "34.18023",
      "Longitude": "36.15894",
    },
    {
      "Location_Name_En": "Mrah El Aassi",
      "Location_Name_Arabic ": "مراح العاصي",
      "Latitude": "34.17816",
      "Longitude": "36.13850",
    },
    {
      "Location_Name_En": "Mrah el Ahmar",
      "Location_Name_Arabic ": "مراح الاحمر",
      "Latitude": "34.04283",
      "Longitude": "36.01084",
    },
    {
      "Location_Name_En": "Mrah el Blata",
      "Location_Name_Arabic ": "مراح البلاطة",
      "Latitude": "34.07574",
      "Longitude": "36.05528",
    },
    {
      "Location_Name_En": "Mrah EL Harfouch",
      "Location_Name_Arabic ": "مراح الحرفوش",
      "Latitude": "34.19452",
      "Longitude": "36.24182",
    },
    {
      "Location_Name_En": "Mrah es Sirghane",
      "Location_Name_Arabic ": "مراح السرغانه",
      "Latitude": "34.01305",
      "Longitude": "35.99257",
    },
    {
      "Location_Name_En": "Mrah Haissoun",
      "Location_Name_Arabic ": "مراح حيصون",
      "Latitude": "34.03962",
      "Longitude": "36.03918",
    },
    {
      "Location_Name_En": "Mrah Kloude",
      "Location_Name_Arabic ": "مراح القلود",
      "Latitude": "34.12874",
      "Longitude": "36.06809",
    },
    {
      "Location_Name_En": "Mrah Najib",
      "Location_Name_Arabic ": "مراح نجيب",
      "Latitude": "34.09313",
      "Longitude": "36.06816",
    },
    {
      "Location_Name_En": "Mrah Rafi",
      "Location_Name_Arabic ": "مراح رافي",
      "Latitude": "34.29467",
      "Longitude": "36.46997",
    },
    {
      "Location_Name_En": "Mrah Semaan",
      "Location_Name_Arabic ": "مراح سمعان",
      "Latitude": "34.17945",
      "Longitude": "36.15228",
    },
    {
      "Location_Name_En": "Mrah Soukkar",
      "Location_Name_Arabic ": "مراح سكر",
      "Latitude": "34.17804",
      "Longitude": "36.14397",
    },
    {
      "Location_Name_En": "Nabha",
      "Location_Name_Arabic ": "نبحا",
      "Latitude": "34.18336",
      "Longitude": "36.22486",
    },
    {
      "Location_Name_En": "Nabha Al Mohfara",
      "Location_Name_Arabic ": "نبحا المحفارة",
      "Latitude": "34.17837",
      "Longitude": "36.22679",
    },
    {
      "Location_Name_En": "Nabi Chit",
      "Location_Name_Arabic ": "نبي شيت",
      "Latitude": "33.87239",
      "Longitude": "36.11177",
    },
    {
      "Location_Name_En": "Nabi Osmane",
      "Location_Name_Arabic ": "نبي عثمان",
      "Latitude": "34.21075",
      "Longitude": "36.37227",
    },
    {
      "Location_Name_En": "Nabi Rachade",
      "Location_Name_Arabic ": "نبي رشاده",
      "Latitude": "33.99499",
      "Longitude": "36.03795",
    },
    {
      "Location_Name_En": "Nabi Sbat",
      "Location_Name_Arabic ": "النبي سباط",
      "Latitude": "33.93657",
      "Longitude": "36.23468",
    },
    {
      "Location_Name_En": "Nahle",
      "Location_Name_Arabic ": "نحله ",
      "Latitude": "34.04227",
      "Longitude": "36.25985",
    },
    {
      "Location_Name_En": "Qaa Jouar Maqiyeh",
      "Location_Name_Arabic ": "قاع جوار مكية",
      "Latitude": "34.38760",
      "Longitude": "36.51236",
    },
    {
      "Location_Name_En": "Qaa Ouadi el Khanzir",
      "Location_Name_Arabic ": "قاع وادي الخنزير",
      "Latitude": "34.37779",
      "Longitude": "36.45466",
      ,
      "Latitude_v3.3": "34.35329",
      "Longitude_v3.3": "36.48914"
    },
    {
      "Location_Name_En": "Qalaat Bakdach",
      "Location_Name_Arabic ": "قلعة بكداش",
      "Latitude": "34.30047",
      "Longitude": "36.36299",
    },
    {
      "Location_Name_En": "Qalb es Sabaa",
      "Location_Name_Arabic ": "مزرعة قلد السبع",
      "Latitude": "34.03178",
      "Longitude": "36.00043",
    },
    {
      "Location_Name_En": "Qarha",
      "Location_Name_Arabic ": "قرحا",
      "Latitude": "34.16667",
      "Longitude": "36.20655",
    },
    {
      "Location_Name_En": "Qiddam",
      "Location_Name_Arabic ": "القدام",
      "Latitude": "34.18251",
      "Longitude": "36.19472",
    },
    {
      "Location_Name_En": "Qlaile",
      "Location_Name_Arabic ": "قليلة ",
      "Latitude": "34.19859",
      "Longitude": "36.22707",
    },
    {
      "Location_Name_En": "Qsarnaba",
      "Location_Name_Arabic ": "قصرنابا",
      "Latitude": "33.91298",
      "Longitude": "35.98921",
    },
    {
      "Location_Name_En": "Ram",
      "Location_Name_Arabic ": "الرام",
      "Latitude": "34.17101",
      "Longitude": "36.17736",
    },
    {
      "Location_Name_En": "Ras al Assy",
      "Location_Name_Arabic ": "راس العاصي ",
      "Latitude": "34.35245",
      "Longitude": "36.38716",
    },
    {
      "Location_Name_En": "Ras Baalbek",
      "Location_Name_Arabic ": "راس بعلبك",
      "Latitude": "34.25912",
      "Longitude": "36.41936",
    },
    {
      "Location_Name_En": "Ras Baalbek ech Charqi",
      "Location_Name_Arabic ": "راس بعلبك الشرقي",
      "Latitude": "34.26147",
      "Longitude": "36.51198",
    },
    {
      "Location_Name_En": "Ras Baalbek es Sahel",
      "Location_Name_Arabic ": "راس بعلبك السهل",
      "Latitude": "34.30317",
      "Longitude": "36.41413",
    },
    {
      "Location_Name_En": "Rasm El Hadet",
      "Location_Name_Arabic ": "رسم الحدث",
      "Latitude": "34.14139",
      "Longitude": "36.27454",
    },
    {
      "Location_Name_En": "Riha",
      "Location_Name_Arabic ": "ريحا",
      "Latitude": "34.15332",
      "Longitude": "36.18995",
    },
    {
      "Location_Name_En": "Saaide",
      "Location_Name_Arabic ": "سعيدة",
      "Latitude": "34.02593",
      "Longitude": "36.08060",
    },
    {
      "Location_Name_En": "Safra",
      "Location_Name_Arabic ": "صفرا",
      "Latitude": "34.14809",
      "Longitude": "36.16528",
    },
    {
      "Location_Name_En": "Saidet ed Dalil",
      "Location_Name_Arabic ": "سيدة الضليل",
      "Latitude": "34.03187",
      "Longitude": "36.07581",
    },
    {
      "Location_Name_En": "Saraain el Faouqa",
      "Location_Name_Arabic ": "سرعين الفوقا",
      "Latitude": "33.87873",
      "Longitude": "36.09186",
    },
    {
      "Location_Name_En": "Saraain et Tahta",
      "Location_Name_Arabic ": "سرعين التحتا",
      "Latitude": "33.87987",
      "Longitude": "36.07772",
    },
    {
      "Location_Name_En": "Sbouba",
      "Location_Name_Arabic ": "صبوبا",
      "Latitude": "34.22208",
      "Longitude": "36.27432",
    },
    {
      "Location_Name_En": "Sifri",
      "Location_Name_Arabic ": "سفري",
      "Latitude": "33.92202",
      "Longitude": "36.07900",
    },
    {
      "Location_Name_En": "Siret Hanna",
      "Location_Name_Arabic ": "سيرة هنا",
      "Latitude": "34.02674",
      "Longitude": "36.00409",
    },
    {
      "Location_Name_En": "Slouqi",
      "Location_Name_Arabic ": "سلوقي",
      "Latitude": "33.95344",
      "Longitude": "36.00552",
    },
    {
      "Location_Name_En": "Taibe Baalbek",
      "Location_Name_Arabic ": "طيبة بعلبك",
      "Latitude": "33.95845",
      "Longitude": "36.16555",
    },
    {
      "Location_Name_En": "Talia",
      "Location_Name_Arabic ": "طليا",
      "Latitude": "33.93415",
      "Longitude": "36.10213",
    },
    {
      "Location_Name_En": "Tall Sougha",
      "Location_Name_Arabic ": "تل سغى",
      "Latitude": "34.22522",
      "Longitude": "36.33507",
    },
    {
      "Location_Name_En": "Tallet ed Deir",
      "Location_Name_Arabic ": "تلة الدير",
      "Latitude": "34.23110",
      "Longitude": "36.34189",
    },
    {
      "Location_Name_En": "Tammine et Tahta",
      "Location_Name_Arabic ": "تمنين التحتا",
      "Latitude": "33.88339",
      "Longitude": "35.98998",
    },
    {
      "Location_Name_En": "Tamnine El Faouqa",
      "Location_Name_Arabic ": "تمنين الفوقا",
      "Latitude": "33.90424",
      "Longitude": "35.97812",
    },
    {
      "Location_Name_En": "Taraiya",
      "Location_Name_Arabic ": "طاريا",
      "Latitude": "33.98345",
      "Longitude": "36.02204",
    },
    {
      "Location_Name_En": "Tfail",
      "Location_Name_Arabic ": "طفيل",
      "Latitude": "33.84999",
      "Longitude": "36.36687",
    },
    {
      "Location_Name_En": "Toufiqiye",
      "Location_Name_Arabic ": "التوفيقية",
      "Latitude": "34.17615",
      "Longitude": "36.31581",
    },
    {
      "Location_Name_En": "Wadi el Assouad",
      "Location_Name_Arabic ": "وادي الاسود",
      "Latitude": "34.03969",
      "Longitude": "35.99721",
    },
    {
      "Location_Name_En": "Wadi el Oss",
      "Location_Name_Arabic ": "وادي القصص",
      "Latitude": "34.24220",
      "Longitude": "36.27377",
    },
    {
      "Location_Name_En": "Yahfoufa",
      "Location_Name_Arabic ": "يحفوفا",
      "Latitude": "33.85824",
      "Longitude": "36.12168",
    },
    {
      "Location_Name_En": "Yammoune",
      "Location_Name_Arabic ": "يمونة",
      "Latitude": "34.12923",
      "Longitude": "36.02709",
    },
    {
      "Location_Name_En": "Younine",
      "Location_Name_Arabic ": "يونين",
      "Latitude": "34.07846",
      "Longitude": "36.27494",
    },
    {
      "Location_Name_En": "Zabboud",
      "Location_Name_Arabic ": "زبود",
      "Latitude": "34.24062",
      "Longitude": "36.31875",
    },
    {
      "Location_Name_En": "Zarayeb",
      "Location_Name_Arabic ": "زرايب",
      "Latitude": "34.09407",
      "Longitude": "36.04526",
    },
    {
      "Location_Name_En": "Zarayeb Choukr",
      "Location_Name_Arabic ": "زرايب شكر",
      "Latitude": "34.09292",
      "Longitude": "36.06081",
    },
    {
      "Location_Name_En": "Zeribet es Sabha",
      "Location_Name_Arabic ": "زريبة الصبحا",
      "Latitude": "34.04062",
      "Longitude": "36.01785",
    },
    {
      "Location_Name_En": "Zrazir",
      "Location_Name_Arabic ": "زرازير",
      "Latitude": "34.15340",
      "Longitude": "36.12247",
    },
    {
      "Location_Name_En": "Aaqabe",
      "Location_Name_Arabic ": "عقبة",
      "Latitude": "34.38578",
      "Longitude": "36.41629",
    },
    {
      "Location_Name_En": "Ain al Jadideh",
      "Location_Name_Arabic ": "عين الجديدة الهرمل",
      "Latitude": "34.44953",
      "Longitude": "36.33205",
    },
    {
      "Location_Name_En": "Ain el bayda",
      "Location_Name_Arabic ": "عين البيضاء",
      "Latitude": "34.39309",
      "Longitude": "36.23033",
    },
    {
      "Location_Name_En": "Bdita",
      "Location_Name_Arabic ": "بديتا",
      "Latitude": "34.39003",
      "Longitude": "36.37900",
    },
    {
      "Location_Name_En": "Beit Aallam",
      "Location_Name_Arabic ": "بيت علام",
      "Latitude": "34.38716",
      "Longitude": "36.24056",
    },
    {
      "Location_Name_En": "Beit Aallaou",
      "Location_Name_Arabic ": "بيت علاّو",
      "Latitude": "34.37796",
      "Longitude": "36.23206",
    },
    {
      "Location_Name_En": "Beit es Semmaqa",
      "Location_Name_Arabic ": "بيت السماقة",
      "Latitude": "34.47951",
      "Longitude": "36.33422",
    },
    {
      "Location_Name_En": "Beit Hira",
      "Location_Name_Arabic ": "بيت حيرا",
      "Latitude": "34.44298",
      "Longitude": "36.47072",
    },
    {
      "Location_Name_En": "Berghoch",
      "Location_Name_Arabic ": "برغش",
      "Latitude": "34.39225",
      "Longitude": "36.30063",
    },
    {
      "Location_Name_En": "Biyout Aawad",
      "Location_Name_Arabic ": "بيوت عواد",
      "Latitude": "34.37244",
      "Longitude": "36.23477",
    },
    {
      "Location_Name_En": "Biyout el Ain",
      "Location_Name_Arabic ": "بيوت العين",
      "Latitude": "34.40433",
      "Longitude": "36.24589",
    },
    {
      "Location_Name_En": "Biyout el Hajj Hassan",
      "Location_Name_Arabic ": "بيوت الحاج حسن",
      "Latitude": "34.37951",
      "Longitude": "36.22320",
    },
    {
      "Location_Name_En": "Biyout er Rouais",
      "Location_Name_Arabic ": "بيوت الرويس",
      "Latitude": "34.36231",
      "Longitude": "36.23669",
    },
    {
      "Location_Name_En": "Biyout es Souh",
      "Location_Name_Arabic ": "بيوت السوح",
      "Latitude": "34.34424",
      "Longitude": "36.22921",
    },
    {
      "Location_Name_En": "Bou Sawaya",
      "Location_Name_Arabic ": "بو صوايا",
      "Latitude": "34.35749",
      "Longitude": "36.19150",
    },
    {
      "Location_Name_En": "Bouaida",
      "Location_Name_Arabic ": "بويضة ",
      "Latitude": "34.43579",
      "Longitude": "36.41361",
    },
    {
      "Location_Name_En": "Boustane",
      "Location_Name_Arabic ": "بستان ",
      "Latitude": "34.51200",
      "Longitude": "36.32771",
    },
    {
      "Location_Name_En": "Breij",
      "Location_Name_Arabic ": "البريج",
      "Latitude": "34.45525",
      "Longitude": "36.38121",
    },
    {
      "Location_Name_En": "Brissa",
      "Location_Name_Arabic ": "بريصا",
      "Latitude": "34.44355",
      "Longitude": "36.31508",
    },
    {
      "Location_Name_En": "Charbine",
      "Location_Name_Arabic ": "شربين",
      "Latitude": "34.45804",
      "Longitude": "36.36221",
    },
    {
      "Location_Name_En": "Chouaghir",
      "Location_Name_Arabic ": "شواغير",
      "Latitude": "34.40291",
      "Longitude": "36.42317",
    },
    {
      "Location_Name_En": "Ed Daoura el hermel",
      "Location_Name_Arabic ": "الدورة الهرمل",
      "Latitude": "34.40275",
      "Longitude": "36.38937",
    },
    {
      "Location_Name_En": "El Baaoul",
      "Location_Name_Arabic ": "البعول",
      "Latitude": "34.41793",
      "Longitude": "36.33389",
    },
    {
      "Location_Name_En": "El Mdawesh",
      "Location_Name_Arabic ": "مداوش",
      "Latitude": "34.39728",
      "Longitude": "36.24791",
    },
    {
      "Location_Name_En": "El Ouaqf",
      "Location_Name_Arabic ": "الوقف",
      "Latitude": "34.39307",
      "Longitude": "36.38514",
    },
    {
      "Location_Name_En": "El Qraita",
      "Location_Name_Arabic ": "قريتي",
      "Latitude": "34.37382",
      "Longitude": "36.24301",
    },
    {
      "Location_Name_En": "Es Souaidiye",
      "Location_Name_Arabic ": "سويدية",
      "Latitude": "34.40584",
      "Longitude": "36.24068",
    },
    {
      "Location_Name_En": "Faara",
      "Location_Name_Arabic ": "فعرا",
      "Latitude": "34.28598",
      "Longitude": "36.30405",
    },
    {
      "Location_Name_En": "Fissane",
      "Location_Name_Arabic ": "فيسان",
      "Latitude": "34.47618",
      "Longitude": "36.34572",
    },
    {
      "Location_Name_En": "Haouch Es Saiyad Aali",
      "Location_Name_Arabic ": "حوش السيد علي",
      "Latitude": "34.46019",
      "Longitude": "36.49877",
    },
    {
      "Location_Name_En": "Haouchariye",
      "Location_Name_Arabic ": "هوشرية",
      "Latitude": "34.49554",
      "Longitude": "36.39530",
    },
    {
      "Location_Name_En": "Haret El Maasser",
      "Location_Name_Arabic ": "حارة المعاصر",
      "Latitude": "34.42938",
      "Longitude": "36.32439",
    },
    {
      "Location_Name_En": "Hariqa el hermel",
      "Location_Name_Arabic ": "حريقة الهرمل",
      "Latitude": "34.49172",
      "Longitude": "36.37810",
      ,
      "Old name used in V3.3": "Hariqa"
    },
    {
      "Location_Name_En": "Hawch Beit Ismail",
      "Location_Name_Arabic ": "حوش بيت اسماعيل",
      "Latitude": "34.45523",
      "Longitude": "36.48293",
    },
    {
      "Location_Name_En": "Hermel",
      "Location_Name_Arabic ": "هرمل",
      "Latitude": "34.39719",
      "Longitude": "36.38607",
    },
    {
      "Location_Name_En": "Hermel Jbab",
      "Location_Name_Arabic ": "هرمل جباب",
      "Latitude": "34.35531",
      "Longitude": "36.23042",
    },
    {
      "Location_Name_En": "Hmaire",
      "Location_Name_Arabic ": "حميرة",
      "Latitude": "34.49502",
      "Longitude": "36.32881",
    },
    {
      "Location_Name_En": "Jawz",
      "Location_Name_Arabic ": "جوز",
      "Latitude": "34.46194",
      "Longitude": "36.27433",
    },
    {
      "Location_Name_En": "Jisr el Aassi",
      "Location_Name_Arabic ": "جسر العاصي",
      "Latitude": "34.39078",
      "Longitude": "36.41987",
    },
    {
      "Location_Name_En": "Jouar El Hachich",
      "Location_Name_Arabic ": "جوار الحشيش",
      "Latitude": "34.48806",
      "Longitude": "36.32487",
    },
    {
      "Location_Name_En": "Jouret el Mzar",
      "Location_Name_Arabic ": "جورة المزار",
      "Latitude": "34.33734",
      "Longitude": "36.22715",
    },
    {
      "Location_Name_En": "Kouakh",
      "Location_Name_Arabic ": "كواخ",
      "Latitude": "34.46668",
      "Longitude": "36.38886",
    },
    {
      "Location_Name_En": "Maaisr",
      "Location_Name_Arabic ": "معيصرة",
      "Latitude": "34.27636",
      "Longitude": "36.29170",
    },
    {
      "Location_Name_En": "Mansoureh",
      "Location_Name_Arabic ": "منصورة",
      "Latitude": "34.42439",
      "Longitude": "36.41150",
    },
    {
      "Location_Name_En": "Marj Hine",
      "Location_Name_Arabic ": "مرجحين",
      "Latitude": "34.40828",
      "Longitude": "36.25346",
    },
    {
      "Location_Name_En": "Mazraat Beit el Fqih",
      "Location_Name_Arabic ": "مزرعة بيت الفقيه",
      "Latitude": "34.34923",
      "Longitude": "36.34020",
    },
    {
      "Location_Name_En": "Mazraat Beit Et Tachm",
      "Location_Name_Arabic ": "مزرعة بيت الطشم",
      "Latitude": "34.42346",
      "Longitude": "36.45999",
    },
    {
      "Location_Name_En": "Mazraat Et Talle",
      "Location_Name_Arabic ": "مراح التلة",
      "Latitude": "34.49025",
      "Longitude": "36.38047",
    },
    {
      "Location_Name_En": "Mnaira",
      "Location_Name_Arabic ": "منيرة",
      "Latitude": "34.31190",
      "Longitude": "36.31793",
    },
    {
      "Location_Name_En": "Mrah Aabbas",
      "Location_Name_Arabic ": "مراح عباس",
      "Latitude": "34.39764",
      "Longitude": "36.35011",
    },
    {
      "Location_Name_En": "Mrah Beit Aalaoui",
      "Location_Name_Arabic ": "مراح بيت علاو",
      "Latitude": "34.36783",
      "Longitude": "36.34087",
    },
    {
      "Location_Name_En": "Mrah Bou Kamar al Dine",
      "Location_Name_Arabic ": "مراح بو قمر الدين",
      "Latitude": "34.39213",
      "Longitude": "36.34388",
    },
    {
      "Location_Name_En": "Mrah Ech Chaab",
      "Location_Name_Arabic ": "مراح الشعاب الهرمل",
      "Latitude": "34.49619",
      "Longitude": "36.38299",
    },
    {
      "Location_Name_En": "Mrah ech Charqi",
      "Location_Name_Arabic ": "مراح الشرقي",
      "Latitude": "34.40006",
      "Longitude": "36.38199",
    },
    {
      "Location_Name_En": "Mrah ech Chnain",
      "Location_Name_Arabic ": "مراح شنين",
      "Latitude": "34.39978",
      "Longitude": "36.34261",
    },
    {
      "Location_Name_En": "Mrah el Aaqabe",
      "Location_Name_Arabic ": "مراح العقبة",
      "Latitude": "34.28436",
      "Longitude": "36.27419",
    },
    {
      "Location_Name_En": "Mrah El Ain",
      "Location_Name_Arabic ": "مراح العين",
      "Latitude": "34.47129",
      "Longitude": "36.33472",
    },
    {
      "Location_Name_En": "Mrah el Arab",
      "Location_Name_Arabic ": "مراح العرب",
      "Latitude": "34.47804",
      "Longitude": "36.35338",
    },
    {
      "Location_Name_En": "Mrah El Dalil",
      "Location_Name_Arabic ": "مراح الدليل",
      "Latitude": "34.48116",
      "Longitude": "36.36933",
    },
    {
      "Location_Name_En": "Mrah el Gharbi",
      "Location_Name_Arabic ": "مراح الغربي",
      "Latitude": "34.39806",
      "Longitude": "36.37772",
    },
    {
      "Location_Name_En": "Mrah el Mahlise",
      "Location_Name_Arabic ": "مراح المحليسة",
      "Latitude": "34.28053",
      "Longitude": "36.25998",
    },
    {
      "Location_Name_En": "Mrah El Mouchref",
      "Location_Name_Arabic ": "مراح المشرف",
      "Latitude": "34.43253",
      "Longitude": "36.35886",
    },
    {
      "Location_Name_En": "Mrah El Mougher",
      "Location_Name_Arabic ": "مراح المغر",
      "Latitude": "34.39255",
      "Longitude": "36.32178",
    },
    {
      "Location_Name_En": "Mrah el Qorne",
      "Location_Name_Arabic ": "مراح القرنة",
      "Latitude": "34.32773",
      "Longitude": "36.31996",
    },
    {
      "Location_Name_En": "Mrah el Qraita",
      "Location_Name_Arabic ": "مراح القريتا",
      "Latitude": "34.29379",
      "Longitude": "36.31819",
    },
    {
      "Location_Name_En": "Mrah es Siyaid",
      "Location_Name_Arabic ": "مراح السياد",
      "Latitude": "34.37278",
      "Longitude": "36.34306",
    },
    {
      "Location_Name_En": "Mrah esh Shmis",
      "Location_Name_Arabic ": "مراح الشميس الهرمل",
      "Latitude": "34.48765",
      "Longitude": "36.37348",
    },
    {
      "Location_Name_En": "Mrah Ez Zakbe",
      "Location_Name_Arabic ": "مراح الزكبة",
      "Latitude": "34.47951",
      "Longitude": "36.39286",
    },
    {
      "Location_Name_En": "Mrah Houssain Taane",
      "Location_Name_Arabic ": "مراح حسين طعان",
      "Latitude": "34.30308",
      "Longitude": "36.29862",
    },
    {
      "Location_Name_En": "Mrah Naaouas",
      "Location_Name_Arabic ": "مراح النواس",
      "Latitude": "34.33902",
      "Longitude": "36.30669",
    },
    {
      "Location_Name_En": "Mrah Sejoud",
      "Location_Name_Arabic ": "مراح سجد",
      "Latitude": "34.42377",
      "Longitude": "36.34736",
    },
    {
      "Location_Name_En": "Mrah Yassine",
      "Location_Name_Arabic ": "مراح ياسين",
      "Latitude": "34.33792",
      "Longitude": "36.33362",
    },
    {
      "Location_Name_En": "Nasriye",
      "Location_Name_Arabic ": "ناصرية الهرمل",
      "Latitude": "34.44701",
      "Longitude": "36.42481",
    },
    {
      "Location_Name_En": "Ouadi en Nayra",
      "Location_Name_Arabic ": "وادي النيرة",
      "Latitude": "34.31201",
      "Longitude": "36.31168",
    },
    {
      "Location_Name_En": "Ouadi Er Ratle",
      "Location_Name_Arabic ": "وادي الرطل",
      "Latitude": "34.39601",
      "Longitude": "36.32943",
    },
    {
      "Location_Name_En": "Ouadi et Tourkmane",
      "Location_Name_Arabic ": "وادي التركمان",
      "Latitude": "34.37657",
      "Longitude": "36.31800",
    },
    {
      "Location_Name_En": "Qanafez",
      "Location_Name_Arabic ": "قنافذ",
      "Latitude": "34.49379",
      "Longitude": "36.40633",
    },
    {
      "Location_Name_En": "Qasr",
      "Location_Name_Arabic ": "القصر",
      "Latitude": "34.48093",
      "Longitude": "36.44055",
    },
    {
      "Location_Name_En": "Quadi el Karm",
      "Location_Name_Arabic ": "وادي الكرم",
      "Latitude": "34.34185",
      "Longitude": "36.32032",
    },
    {
      "Location_Name_En": "Ras Baalbek el Gharbi",
      "Location_Name_Arabic ": "راس بعلبك الغربي",
      "Latitude": "34.31905",
      "Longitude": "36.22937",
    },
    {
      "Location_Name_En": "Ras Baalbek Ouadi Faara",
      "Location_Name_Arabic ": "راس بعلبك وادي فعرا",
      "Latitude": "34.29695",
      "Longitude": "36.35307",
      ,
      "Latitude_v3.3": "34.2857",
      "Longitude_v3.3": "36.3055"
    },
    {
      "Location_Name_En": "Salhat El Ma",
      "Location_Name_Arabic ": "سهلات المي",
      "Latitude": "34.47081",
      "Longitude": "36.41495",
    },
    {
      "Location_Name_En": "Sharbine el Faouqa",
      "Location_Name_Arabic ": "شربين الفوقا",
      "Latitude": "34.45223",
      "Longitude": "36.34732",
    },
    {
      "Location_Name_En": "Souaisse",
      "Location_Name_Arabic ": "السويسة ",
      "Latitude": "34.46305",
      "Longitude": "36.30713",
    },
    {
      "Location_Name_En": "Tall El far",
      "Location_Name_Arabic ": "تل الفار",
      "Latitude": "34.41374",
      "Longitude": "36.41201",
    },
    {
      "Location_Name_En": "Wadi Bnit",
      "Location_Name_Arabic ": "وادي بنيت",
      "Latitude": "34.32990",
      "Longitude": "36.31560",
    },
    {
      "Location_Name_En": "Wadi Faara",
      "Location_Name_Arabic ": "وادي فعرا",
      "Latitude": "34.28441",
      "Longitude": "36.30664",
    },
    {
      "Location_Name_En": "Zighrine",
      "Location_Name_Arabic ": "زغرين",
      "Latitude": "34.41094",
      "Longitude": "36.32754",
    },
    {
      "Location_Name_En": "Zighrine Et Tahta",
      "Location_Name_Arabic ": "زغرين التحتى",
      "Latitude": "34.42528",
      "Longitude": "36.35890",
    },
    {
      "Location_Name_En": "Zouaitini Zighrine",
      "Location_Name_Arabic ": "الزويتينه زغرين",
      "Latitude": "34.35677",
      "Longitude": "36.32554",
      ,
      "Old name used in V3.3": "Zouaitini"
    },
    {
      "Location_Name_En": "Aadlyeh",
      "Location_Name_Arabic ": "العدلية",
      "Latitude": "33.87924",
      "Longitude": "35.52062",
      ,
      "Latitude_v3.3": "33.878312",
      "Longitude_v3.3": "35.520059"
    },
    {
      "Location_Name_En": "Achrafiye",
      "Location_Name_Arabic ": "الاشرفية",
      "Latitude": "33.88518",
      "Longitude": "35.51912",
    },
    {
      "Location_Name_En": "Ain El Tine",
      "Location_Name_Arabic ": "عين التينة",
      "Latitude": "33.88790",
      "Longitude": "35.47488",
    },
    {
      "Location_Name_En": "Ain Mreisse",
      "Location_Name_Arabic ": "عين المريسه",
      "Latitude": "33.90004",
      "Longitude": "35.48510",
    },
    {
      "Location_Name_En": "Al Hikmat",
      "Location_Name_Arabic ": "حكمة",
      "Latitude": "33.88500",
      "Longitude": "35.49770",
    },
    {
      "Location_Name_En": "Bab Idriss",
      "Location_Name_Arabic ": "باب إدريس",
      "Latitude": "33.89903",
      "Longitude": "35.49883",
    },
    {
      "Location_Name_En": "Bachoura",
      "Location_Name_Arabic ": "باشورة",
      "Latitude": "33.89057",
      "Longitude": "35.50290",
    },
    {
      "Location_Name_En": "Basta Faouka",
      "Location_Name_Arabic ": "بسطا الفوقا",
      "Latitude": "33.88341",
      "Longitude": "35.50149",
    },
    {
      "Location_Name_En": "Basta Tahta",
      "Location_Name_Arabic ": "بسطا التحتا",
      "Latitude": "33.88902",
      "Longitude": "35.50262",
    },
    {
      "Location_Name_En": "Beirut",
      "Location_Name_Arabic ": "بيروت",
      "Latitude": "33.88817",
      "Longitude": "35.50091",
    },
    {
      "Location_Name_En": "Beirut Central District",
      "Location_Name_Arabic ": "وسط بيروت",
      "Latitude": "33.90520",
      "Longitude": "35.50630",
    },
    {
      "Location_Name_En": "Bourj Abi Haidar",
      "Location_Name_Arabic ": "برج أبو حيدر",
      "Latitude": "33.88286",
      "Longitude": "35.49857",
    },
    {
      "Location_Name_En": "Champ de courses",
      "Location_Name_Arabic ": "ميدان سباق الخيل",
      "Latitude": "33.87695",
      "Longitude": "35.50944",
    },
    {
      "Location_Name_En": "Corniche El Naher",
      "Location_Name_Arabic ": "كورنيش النهر",
      "Latitude": "33.88168",
      "Longitude": "35.52543",
    },
    {
      "Location_Name_En": "Dar Al Fatwa",
      "Location_Name_Arabic ": "دارالفتوى",
      "Latitude": "33.88766",
      "Longitude": "35.48831",
    },
    {
      "Location_Name_En": "Ej Jeitaoui",
      "Location_Name_Arabic ": "جعيتاوي",
      "Latitude": "33.89489",
      "Longitude": "35.52692",
    },
    {
      "Location_Name_En": "El Aamliye",
      "Location_Name_Arabic ": "عاملية",
      "Latitude": "33.88293",
      "Longitude": "35.50390",
    },
    {
      "Location_Name_En": "El Ghabe",
      "Location_Name_Arabic ": "غابي",
      "Latitude": "33.88759",
      "Longitude": "35.52494",
    },
    {
      "Location_Name_En": "El Hamra",
      "Location_Name_Arabic ": "حمرا",
      "Latitude": "33.89631",
      "Longitude": "35.48196",
    },
    {
      "Location_Name_En": "El Horge",
      "Location_Name_Arabic ": "حرش",
      "Latitude": "33.87100",
      "Longitude": "35.51000",
    },
    {
      "Location_Name_En": "El Majidiye Beirut",
      "Location_Name_Arabic ": "مجيدية (بيروت)",
      "Latitude": "33.89905",
      "Longitude": "35.50351",
    },
    {
      "Location_Name_En": "El Manara",
      "Location_Name_Arabic ": "منارة",
      "Latitude": "33.89757",
      "Longitude": "35.47163",
    },
    {
      "Location_Name_En": "El Wata",
      "Location_Name_Arabic ": "الوطى",
      "Latitude": "33.87904",
      "Longitude": "35.49127",
    },
    {
      "Location_Name_En": "El Zarif",
      "Location_Name_Arabic ": "ظريف",
      "Latitude": "33.89083",
      "Longitude": "35.49118",
    },
    {
      "Location_Name_En": "Fourn el Hayek",
      "Location_Name_Arabic ": "فرن الحايك",
      "Latitude": "33.88932",
      "Longitude": "35.51233",
    },
    {
      "Location_Name_En": "Gemmayze",
      "Location_Name_Arabic ": "جميزة",
      "Latitude": "33.89510",
      "Longitude": "35.50950",
    },
    {
      "Location_Name_En": "Grand Serail",
      "Location_Name_Arabic ": "سراي الكبير",
      "Latitude": "33.89592",
      "Longitude": "35.49912",
    },
    {
      "Location_Name_En": "Hotel Dieu",
      "Location_Name_Arabic ": "اوتيل ديو",
      "Latitude": "33.88124",
      "Longitude": "35.51835",
    },
    {
      "Location_Name_En": "Jamia",
      "Location_Name_Arabic ": "الجامعة ",
      "Latitude": "33.87700",
      "Longitude": "35.49600",
    },
    {
      "Location_Name_En": "Jisr",
      "Location_Name_Arabic ": "جسر",
      "Latitude": "33.90290",
      "Longitude": "35.53710",
    },
    {
      "Location_Name_En": "Jounblat",
      "Location_Name_Arabic ": "جنبلاط",
      "Latitude": "33.89862",
      "Longitude": "35.49043",
    },
    {
      "Location_Name_En": "Khodr",
      "Location_Name_Arabic ": "الخضر",
      "Latitude": "33.90210",
      "Longitude": "35.53120",
    },
    {
      "Location_Name_En": "La Sagesse",
      "Location_Name_Arabic ": "الحكمة",
      "Latitude": "33.89297",
      "Longitude": "35.52151",
    },
    {
      "Location_Name_En": "Malaab",
      "Location_Name_Arabic ": "ملعب",
      "Latitude": "33.87570",
      "Longitude": "35.50150",
    },
    {
      "Location_Name_En": "Manara",
      "Location_Name_Arabic ": "المنارة",
      "Latitude": "33.89290",
      "Longitude": "35.47130",
    },
    {
      "Location_Name_En": "Mar Elias",
      "Location_Name_Arabic ": "مار الياس",
      "Latitude": "33.88231",
      "Longitude": "35.49153",
    },
    {
      "Location_Name_En": "Mar Maroun",
      "Location_Name_Arabic ": "مار مارون",
      "Latitude": "33.89254",
      "Longitude": "35.50884",
    },
    {
      "Location_Name_En": "Mar Mitr",
      "Location_Name_Arabic ": "مار متر",
      "Latitude": "33.89069",
      "Longitude": "35.52010",
    },
    {
      "Location_Name_En": "Mar Mkhayel",
      "Location_Name_Arabic ": "مار مخايل",
      "Latitude": "33.89646",
      "Longitude": "35.51989",
    },
    {
      "Location_Name_En": "Mar Nqoula",
      "Location_Name_Arabic ": "مار نقولا",
      "Latitude": "33.89217",
      "Longitude": "35.51485",
    },
    {
      "Location_Name_En": "Marfaa",
      "Location_Name_Arabic ": "مرفأ",
      "Latitude": "33.89890",
      "Longitude": "35.51240",
    },
    {
      "Location_Name_En": "Mazraa",
      "Location_Name_Arabic ": "المزرعة",
      "Latitude": "33.87870",
      "Longitude": "35.50291",
    },
    {
      "Location_Name_En": "Medouar",
      "Location_Name_Arabic ": "مدور",
      "Latitude": "33.89815",
      "Longitude": "35.52727",
    },
    {
      "Location_Name_En": "Minet el Hosn",
      "Location_Name_Arabic ": "مينا الحصن",
      "Latitude": "33.89963",
      "Longitude": "35.49553",
    },
    {
      "Location_Name_En": "Moussaitbe",
      "Location_Name_Arabic ": "مصيطبة",
      "Latitude": "33.88414",
      "Longitude": "35.49311",
    },
    {
      "Location_Name_En": "Moustachfa er Roum",
      "Location_Name_Arabic ": "مستشفى الروم",
      "Latitude": "33.89374",
      "Longitude": "35.52301",
    },
    {
      "Location_Name_En": "Najmeh",
      "Location_Name_Arabic ": "النجمة",
      "Latitude": "33.87830",
      "Longitude": "35.51480",
    },
    {
      "Location_Name_En": "Nasra",
      "Location_Name_Arabic ": "الناصرة",
      "Latitude": "33.88510",
      "Longitude": "35.51170",
    },
    {
      "Location_Name_En": "Palais De Justice",
      "Location_Name_Arabic ": "قصر العدل",
      "Latitude": "33.87806",
      "Longitude": "35.51939",
      ,
      "Latitude_v3.3": "33.8793",
      "Longitude_v3.3": "35.5254"
    },
    {
      "Location_Name_En": "Parc",
      "Location_Name_Arabic ": "سباق الخيل",
      "Latitude": "33.87330",
      "Longitude": "35.51290",
    },
    {
      "Location_Name_En": "Patriarcat",
      "Location_Name_Arabic ": "بطركية",
      "Latitude": "33.89110",
      "Longitude": "35.49680",
    },
    {
      "Location_Name_En": "Place de l'Etoile",
      "Location_Name_Arabic ": "ساحة النجمة",
      "Latitude": "33.89643",
      "Longitude": "35.50389",
    },
    {
      "Location_Name_En": "Qantari",
      "Location_Name_Arabic ": "قنطاري",
      "Latitude": "33.89534",
      "Longitude": "35.49561",
    },
    {
      "Location_Name_En": "Qobaiyat",
      "Location_Name_Arabic ": "قبيات",
      "Latitude": "33.89616",
      "Longitude": "35.52918",
    },
    {
      "Location_Name_En": "Qoraitem",
      "Location_Name_Arabic ": "قريطم",
      "Latitude": "33.89177",
      "Longitude": "35.47694",
    },
    {
      "Location_Name_En": "Ramlet el Bayda",
      "Location_Name_Arabic ": "الرملة البيضا",
      "Latitude": "33.87141",
      "Longitude": "35.48199",
    },
    {
      "Location_Name_En": "Raoucheh",
      "Location_Name_Arabic ": "روشه",
      "Latitude": "33.88770",
      "Longitude": "35.47340",
    },
    {
      "Location_Name_En": "Ras Beirut",
      "Location_Name_Arabic ": "راس بيروت",
      "Latitude": "33.89459",
      "Longitude": "35.47819",
    },
    {
      "Location_Name_En": "Ras El Nabaa",
      "Location_Name_Arabic ": "راس النبع",
      "Latitude": "33.88145",
      "Longitude": "35.50686",
    },
    {
      "Location_Name_En": "Remeil",
      "Location_Name_Arabic ": "رميل",
      "Latitude": "33.89467",
      "Longitude": "35.51729",
    },
    {
      "Location_Name_En": "Saife",
      "Location_Name_Arabic ": "صيفي",
      "Latitude": "33.89152",
      "Longitude": "35.50779",
    },
    {
      "Location_Name_En": "Sanayeh",
      "Location_Name_Arabic ": "الصنائع",
      "Latitude": "33.89336",
      "Longitude": "35.48964",
    },
    {
      "Location_Name_En": "Sioufi",
      "Location_Name_Arabic ": "السيوفي",
      "Latitude": "33.88380",
      "Longitude": "35.52680",
    },
    {
      "Location_Name_En": "Snoubra",
      "Location_Name_Arabic ": "صنوبره",
      "Latitude": "33.89290",
      "Longitude": "35.48440",
    },
    {
      "Location_Name_En": "Tallet Druze",
      "Location_Name_Arabic ": "تلة الدروز",
      "Latitude": "33.89020",
      "Longitude": "35.48520",
    },